location,latitude,longitude
公明    石围村,22.759696144488487,113.90600118362043
石桥铺    建工新康桥 距1号线-石桥铺811m,29.524011517043387,106.47698039311688
李家沱    融汇半岛(五期A区) 距18号线-李家沱大桥1208m,29.478954850426806,106.52498305480715
呼家楼    金台西路2号院 距6号线-呼家楼1343m,39.92450899473132,116.47479509568504
三峡广场    煌华新纪元 距环线-沙坪坝343m,24.87466064402624,121.41788241051769
蔡家    中南玖宸(商住楼) 距6号线-曹家湾260m,40.15647271610179,116.32132606710496
龙头寺    保利香槟花园(F区) 距10号线-龙头寺公园355m,29.622574572612788,106.55580427616651
青浦新城    青浦环城新村,31.155539842167276,121.1306360182713
嘉定城区    嘉隆国际,37.85343342071212,113.60656821421946
龙头寺    鲁能星城十三街区 距直快列车-头塘1238m,39.71446720644374,116.06967790560901
梅花园    怡新花园 距3号线(北延段)-梅花园417m,31.155759639741675,121.42026184181258
大坪    奥园康城(A区),29.535715460979116,106.53143944599688
木耳    中国摩金棕公馆 距3号线-举人坝995m,29.80268820795514,106.67744454387685
人和    东原黄山大道东 距5号线-人和666m,28.174878634729424,113.03531596327593
京溪    万科天河御品 距3号线(北延段)-京溪南方医院790m,40.07558875358126,116.31772134675452
周家嘴路    林厦小区 距8号线-黄兴路999m,23.06758504270563,113.69318173888028
石坪桥    鲁能九龙花园(商住楼) 距2号线-马王场1449m,39.849858106846916,116.42916297238916
李家沱    马鞍北路46号院 距6号线-前锋路497m,29.466024654394168,106.56297320328652
双井    富力城(D区) 距7号线-广渠门外595m,39.90166304624212,116.46296701720459
解放碑    凯旋大厦 距2号线-较场口394m,29.563507039446062,106.58314402469256
同里    稻谷人工智能产业园 距4号线-同里576m,31.137921218655933,120.70867640835817
三林    联丰新苑 距6号线-上南路1214m,31.1586040597648,121.5202011145447
杨村街    保利上河雅颂(南区),39.38343613757788,117.04068301101785
大丰    保利大都汇熙汇(商住楼) 距5号线-皇花园1652m,33.20475984971028,120.50743881648788
杨家坪    龙城静园 距2号线-马王场1204m,29.51261085344824,106.52880238034265
皇岗    皇庭世纪 距7号线-皇岗村646m,22.53310734817462,114.06830684344853
龙洞    宝翠园 距6号线-植物园1467m,35.272869414088866,113.1406250512824
次渠    明月听蘭 距亦庄线-次渠1004m,30.379808145715508,106.70073591129724
双福新区    中骏雍景湾,31.122859758565916,121.04681531079638
陈家桥    富力院士廷(A组团) 距1号线-陈家桥882m,39.90266393531041,116.4670233157349
蔡家    中南玖宸(商住楼) 距6号线-曹家湾260m,40.15647271610179,116.32132606710496
华东理工    梅陇四村 距15号线-华东理工大学1340m,31.148189499387666,121.43003908881373
活力岛    天房美瑜兰庭 距8号线-虎丘湿地公园站319m,31.380859390382646,120.6064237294462
融汇    融汇半岛格林美地 距18号线-重庆理工大学953m,39.68334602348123,116.32733860554434
九峰山森林公园    长江广电光谷家 距11号线-光谷生物园911m,26.527730769957707,106.71941409593356
天河公园    荷光路小区 距11号线-华景路1799m,23.12908994461827,113.37152602401203
龙柏金汇    龙柏三村 距10号线-龙柏新村139m,30.994821297571484,121.50805216133612
西门口    人民中路小区 距1号线-西门口547m,23.334200104082456,113.19890000167486
将台路    将府锦苑1号院(新2号院... 距12号线-东坝西773m,39.996161838493336,116.53479310035756
坪洲    华侨新村西堤自建房 距1号线-坪洲557m,22.56176633614638,113.8614083099838
区府    国瑞城新(一期) 距2号线-大渡口659m,31.382225626612858,121.27313862301611
大学城    新城悦隽风华,29.590761614049622,106.31909484554915
大坪    江屿朗廷 距2号线-大坪1234m,29.544423001321192,106.52276450968988
高行    仁恒森兰雅苑(二期) 距6号线-东靖路873m,31.295697854072316,121.62008909403221
亦庄    国锐金嵿 距亦庄线-荣京东街912m,39.796677571072685,116.51449022803489
天星桥    临江苑 距环线-天星桥469m,31.413765789378928,121.49948448270415
双港    金地艺华年盈翠名苑 距6号线二期-景荷道1038m,39.01684275169001,117.28937206433336
桃源村    珠光村东区 距7号线-珠光508m,31.546182933355848,121.60868366829423
弹子石    华润凯旋天地,29.58818614828762,106.59668867516754
福永    碧桂园领寓,22.687910882479866,113.83928008087217
兴南街    龙凤里(南开) 距1号线-二纬路490m,39.13766489030964,117.18550036940076
城南    天誉生活广场(商住楼) 距4号线-石湖东路463m,39.97268905954313,116.53710497941803
运东    联发棠颂,30.323960568147108,120.61209922365825
城南    香溢花园 距7号线-枫津路站586m,30.67844938152735,104.03703945037935
东升镇    金恒德汽配城 距19号线-龙桥路1292m,47.76578517303851,128.94519308743895
大坪    和泓渝中界 距2号线-大坪565m,29.548225537006317,106.53446296268137
南汇周边    悦海名邸 距16号线-临港大道635m,31.06285224949284,121.79462689021275
同德围    万科金域悦府 距8号线-鹅掌坦1109m,35.25985777581735,100.58542386563559
同乐    中海寰宇珑宸 距14号线-宝龙站1903m,32.253483429739,118.36657942848989
番禺节能科技园    领秀公馆,22.98187662759082,113.3769924825301
大学城    富力院士廷(商住楼) 距1号线-陈家桥646m,23.157829113169957,113.3437319125592
人和    人和镇人和村 距3号线(北延段)-人和1343m,29.63310260222568,106.54354546019809
盘龙    盘龙金茂悦(商住楼) 距2号线-大堰村1409m,25.069318033622885,102.73593885904357
皇岗    天泽花园 距4号线-福田口岸318m,31.18679405836559,121.37377866387658
龙头寺    金科公园王府(渝北) 距环线-渝鲁776m,29.622574572612788,106.55580427616651
马驹桥    合创产业中心,39.899691806581615,116.48582350260048
滘口    新世界凯粤湾 距5号线-滘口927m,23.13815002714035,113.33356003995088
花卉园    好望花园(商业) 距6号线-花卉园155m,40.39505661455299,116.84652128181908
皇岗    深物业金领 距7号线-赤尾1241m,22.53310734817462,114.06830684344853
大石坝    东原D8公馆 距5号线-大石坝141m,29.57520000297561,106.50039715165158
惠南    远洋万和四季,31.05361427495269,121.75609245841233
同和    云涛花园 距3号线(北延段)-同和220m,23.20355203454653,113.3347275676218
北蔡    南新四村 距13号线-下南路1118m,31.350085823089195,121.48672423259602
白石洲    深业世纪山谷(商住楼) 距1号线-白石洲952m,22.690280542015405,114.34400309250826
临平路    虹叶茗园 距4号线-临平路469m,39.889679185477796,116.33409592908205
沙井    万丰村 距11号线-沙井1081m,22.728544213561833,113.83218957582315
五桥    百安花园,30.762279847082517,108.43681290768282
水上公园    阳光100天塔喜马拉雅 距3号线-天塔561m,39.10149901871705,117.1600042132638
金泘沱    曲江金水园小区 距4号线-金滹沱495m,24.688407846380294,113.61150106464875
古美罗阳    半岛豪门(公寓住宅) 距12号线-虹莘路470m,31.151729652457817,121.40079834615844
姑苏城区    金秋花园 距3号线-迎春路1276m,31.330371891055567,121.3967971137559
北七家    王府花园,40.11341204783705,116.40877700680682
工农村街    晴景家园,30.811278418420848,107.96813611124833
曲江四小    金地南湖艺境一期,24.688407846380294,113.61150106464875
金融城    创新时代广场 距1号线-金融城555m,39.94357090841068,116.35271941925382
五里店    卓越皇后道 距6号线-红土地992m,29.584197543273156,106.56393412069023
航华    航华一村一街坊北小区 距10号线-紫藤路1593m,31.178800994113722,121.35960025885984
马连洼    树村丽景苑,39.92047488769308,116.59097869644573
观澜    珑门,22.729370312616417,114.03510924469386
常州道    倚营里 距2号线-翠阜新村146m,39.147996257283424,117.26130765274338
西乡    槟城西岸华庭 距11号线-碧海湾762m,32.98939744189546,107.77339281906241
龙洲湾    旭辉城(商住楼) 距3号线-学堂湾529m,29.407708669040417,106.54922661373298
金杨新村    金杨新村六街坊 距9号线-蓝天路540m,31.25522303103741,121.58142045538861
南桥    奉发名邸 距5号线-奉贤新城1761m,31.0561987563037,121.20399694621861
鲁谷    七星园 距1号线-八角游乐园1330m,39.9199254647679,116.2086589730936
上新街    七必居 距环线-上浩225m,29.55242592667151,106.60034253282817
运东    恒达星湖湾,31.158706113647582,120.66816561460526
福永    碧桂园领寓,22.687910882479866,113.83928008087217
西藏北路    联富假日公寓 距10号线-天潼路277m,31.250186968902003,121.48826401807067
金洲    中大城 距4号线-金洲467m,39.701371151154724,115.99611081654717
农业园区    万科朗润园,31.5997974187015,121.81484630995355
白沙洲    中建铂公馆 距5号线-张家湾1948m,26.861554778090476,112.64437942410959
莘庄工业区    颛桥紫薇花园 距5号线-颛桥475m,31.18595431277102,121.38380537031784
徐泾    振新佳苑 距17号线-徐盈路856m,30.963493360390036,121.16018901192187
建设路    凤华庄四社-七社新村自建... 距9号线-花城路1435m,23.395189774414558,113.2142650682652
跃进村    晋愉盛世融城(A区) 距2号线-平安1108m,29.495857354234005,106.48073818472496
康复路    三府湾天润佳苑北区 距3号线-胡家庙1547m,34.29089612714506,109.01282796001291
大学城    恒大未来城四街区,30.6774548648182,103.86996899841161
天回镇    芙蓉锦绣天城 距3号线-植物园1052m,30.759283988937153,104.10918982182142
加州    财信城市国际 距3号线-嘉州路917m,30.695807964099412,104.05807039931786
菊园新区    汇丰凯苑 距11号线-嘉定北1377m,31.3932152100007,121.23403852823604
龙溪    聚信广场 距6号线-花卉园705m,29.586967998395057,106.5128197287144
新牌坊    碧桂园嘉誉 距环线-民安大道903m,23.21113050507408,113.28615322430515
双山    中交丽景 距2号线-平安1719m,29.505046703389628,106.63917996306428
万胜围    保利天悦MO公寓 距4号线-万胜围899m,23.105890976372642,113.38456995899591
农业园区    万科朗润园,31.5997974187015,121.81484630995355
汉阳周边    碧桂园泰富城 距6号线-江城大道1555m,30.564861907291235,114.240456778691
王家墩CBD    华发中城荟 距3号线-范湖799m,30.878851874560002,121.5565806910878
龙洞    保利林海山庄 距6号线-植物园1169m,23.19578661170944,113.36559909408972
七宝    宝隆新村 距9号线-七宝1023m,31.16416718643186,121.35746920869852
珞瑜东路    祥和雅居 距2号线-佳园路673m,22.761715041800883,113.82933961176313
观音桥    欧街92 距6号线-黄泥塝1075m,29.016928583368593,106.94920513683756
挂甲寺    新城小区 距1号线-土城485m,39.10541028790888,117.23334519882879
石井坡    信达滨江蓝庭 距1号线-石井坡567m,39.90877570866832,116.36951602550994
龙洲湾    万达华城(3期商住楼) 距3号线-学堂湾576m,29.407708669040417,106.54922661373298
向阳街    毓园 距津滨轻轨(9号线)-塘沽站1064m,39.63808415345239,116.32581409126335
石桥铺    龙湖新壹城(商住楼) 距环线-陈家坪622m,30.10061484327387,106.62407155466754
中央公园    龙湖天际 距5号线-中央公园西189m,23.37777578062844,116.7235246469334
江南新区    海成长江之星C2区,22.827132884793524,108.333180508464
松江大学城    中展瑞景 距9号线-松江大学城1526m,31.06444059487038,121.23986754285976
回兴    南方玫瑰城橙瑰苑 距9号线-宝圣湖1299m,29.677713670374555,106.61021967139875
木樨地    复兴门外大街4号小区 距1号线-南礼士路361m,35.99164110365963,120.15234475687106
赤岗    绿茵翠庭 距8号线-客村1630m,23.093364269310317,113.33251818522075
福永    会展湾水岸广场 距12号线-国展北990m,22.70985034231948,113.78522301970773
天河公园    荷光路小区 距11号线-华景路1799m,23.12908994461827,113.37152602401203
鱼嘴镇    和韵家园(南区) 距4号线-鱼嘴167m,29.62992687044213,106.76497606155405
鸳鸯    大雅云居山 距3号线-园博园1487m,29.680065997551296,106.5705670289126
白沙洲    世茂云锦樱海园 距5号线-光霞1589m,26.861554778090476,112.64437942410959
金花镇    龙祥苑(花龙门一街) 距9号线-培风1546m,29.970661401540283,103.92612673561071
美年广场    嘉年华青年城smart公... 距1号线-天府五街1194m,30.54066507898761,104.07493348018171
大观    中化滨江锦府 距7号线-狮子山259m,30.519996912852392,117.02795797448569
锦业路    旗远锦樾 距6号线-丈八四路490m,34.19808633744019,108.88126060790218
望京    合生麒麟社 距14号线-阜通936m,40.003021626901365,116.48308447927
奥体中心    中新城上城上城花园 距2号线-袁家岗798m,29.534520397134845,106.51595912680963
回龙观    尚城 距昌平线-生命科学园1676m,40.11061283471207,116.30066018952573
天河公园    荷光路小区 距11号线-华景路1799m,23.12908994461827,113.37152602401203
金桥    金桥新村四街坊 距6号线-博兴路839m,39.74389814478484,116.57532150089848
外光华    龙湖西府琅悦(商住楼) 距4号线-成都西站579m,41.217130512149794,123.20979789740245
西永    西著七里五组团(商住楼) 距1号线-微电园976m,29.619333983165518,106.36252899490884
宝安中心区    新锦安海纳公馆 距1号线-新安850m,22.560032908924555,113.89042744066019
十里河    十里河村住房 距14号线-十里河462m,41.52157731671681,123.38086500041463
王家墩CBD    泛海国际居住区桂海园 距7号线-常码头1029m,30.878851874560002,121.5565806910878
谢家湾    聚金万佳苑 距环线-谢家湾800m,29.5282332716243,106.5189156299031
西永    金科天宸十一街区 距1号线-微电园573m,29.602869990449168,106.38381272701083
奥体中心    上城奥悦 距2号线-袁家岗785m,30.232618187567876,120.20428990179938
石桥铺    万科023创意天地 距5号线-红岩村402m,29.524011517043387,106.47698039311688
白沙洲    韵湖春晓 距7号线-新路村983m,26.861554778090476,112.64437942410959
管庄    管庄西里 距八通线-管庄1223m,38.03312971500478,114.43667688513533
经济技术开发区    睿明居 距4号线-市中医医院473m,22.98773499122913,113.73646703901703
大雁塔    后村嘉园 距3号线-大雁塔714m,39.84886488836161,116.37304753396131
街口中心区    珠光御景山水城,23.550392574949797,113.59802702098682
奥体中心    金茂未来域 距2号线-袁家岗723m,39.993300002599206,116.40041207572847
集贤里    民悦园,39.239861326069125,117.14537153515067
回兴    东衡爱地社区 距9号线-青岗坪781m,29.676588791809607,106.62108440704671
京溪    京溪村 距3号线(北延段)-京溪南方医院643m,23.18967697470419,113.33700351446114
南翔    云翔佳苑(南区),31.300678777849367,121.32705743498042
空港    环湖雅居(A区),29.765981134842665,106.6372019841625
磁各庄    金融街金色漫香郡(北区),39.72146303285061,116.40687646183937
罗冲围    富力半岛花园 距5号线-西场1417m,47.286267328178155,130.29142965692074
龙华    富通天骏 距4号线-龙华390m,22.65687066116593,114.0293366436581
回兴    重庆国际家纺城绣色C区 距9号线-青岗坪574m,29.666539239338363,106.62359669806563
三森国际家俱城    华城泊郡 距2号线-三爻322m,23.319370992623988,113.33294011931865
赵巷    崧泽华城逸泰雅苑(南区) 距17号线-汇金路1664m,31.143964319596407,121.16348920670443
凤栖原    木材公司家属院 距2号线-凤栖原355m,35.77125772240279,109.43874397688364
火车东站    中环壹号大厦 距7号线-迎晖路69m,30.64403439726359,104.1472751906974
南桥    金海苑(南区) 距5号线-奉贤新城809m,30.92421856305515,121.50539569228201
芦台镇    福康花园,23.30823291803246,113.83089826165298
回龙湾    美堤雅城(A区) 距10号线-兰花路330m,23.62590582735245,116.71142168697091
杨家坪    万科西九(一期商住楼) 距18号线-石坪桥402m,29.51261085344824,106.52880238034265
加州    财信城市国际 距3号线-嘉州路917m,30.695807964099412,104.05807039931786
爱联    恒大城市广场 距3号线-爱联249m,22.699770351688535,114.24013795524019
华强南    城市春天花园 距11号线-福星22m,27.576240966559514,116.64339884970856
宝丰    武烟宿舍 距1号线-硚口路655m,31.315231317680144,121.36609455854422
西永    金科天宸十二街区 距1号线-微电园502m,29.602869990449168,106.38381272701083
北新泾    虹园六村 距2号线-淞虹路1134m,31.219599876403525,121.36765293894292
平江路    丹香弄3号小区 距1号线-临顿路46m,36.0343455512614,120.17510620154398
流芳    佛祖岭F区东区 距2号线-佛祖岭1856m,30.444342128896476,114.46325289432582
古田    美好名流汇(一期) 距1号线-古田二路750m,23.770515013561774,113.886517026946
永泰    永泰集贤路133号自建房 距3号线(北延段)-白云大道北1364m,23.23076370114457,113.31030910861324
马安山    会展湾雍境 距12号线-海上田园南360m,27.44241532478952,102.03022115741345
公明    将石旧村,22.785134526043514,113.90322883315646
石坪桥    保利爱尚里尚景 距18号线-石坪桥1632m,39.9229081214029,116.66418799042296
江南新区    海成长江之星C2区,22.827132884793524,108.333180508464
普东街    淮祥园 距5号线-淮河道554m,39.21969882464312,117.20034828151408
高笋塘    锦江金都,30.807276127025467,108.38405605389568
大学城    协信城天骄名城(三四期),29.52789370878533,106.57784842388244
三林    金光小区 距11号线-三林435m,31.15089708721877,121.50909724996643
工农村街    晴景家园,30.811278418420848,107.96813611124833
迎宾街    晨晖里,38.85517794426437,117.47260905107252
茶园新区    庆隆钻石岛(别墅),29.78052575723639,106.14764263902147
鲁谷    北重西厂,39.89578548345915,116.24550665663794
李家沱    半山壹号(东区) 距3号线-岔路口1362m,29.463169875668093,106.55719916496196
龙洲湾    旭辉城(商住楼) 距3号线-学堂湾529m,29.407708669040417,106.54922661373298
李家沱    巴比亚半山 距18号线-重庆理工大学446m,29.466579437290946,106.53227882266512
观音桥    城市领地 距3号线-华新街300m,29.572660731536796,106.54313547356348
大足城区    香棠水榭,29.709892252472308,105.74502435534612
活力岛    华润橡树湾花园一期(公寓... 距4号线-活力岛1019m,31.380859390382646,120.6064237294462
龙潭寺    北湖印象1期,25.8178597945965,113.0381009798476
市区    泰山北路99号小区,23.60705986477763,113.56738555055995
高境    四季绿城(北区) 距3号线-长江南路1668m,31.327242041381542,121.48447460610738
车公庙    深业中城(商住楼) 距7号线-农林745m,22.690280542015405,114.34400309250826
西长安街    金堆城花园西区,34.164360147010825,108.93181319962895
姑苏城区    金秋花园 距3号线-迎春路1276m,31.330371891055567,121.3967971137559
进港大道    方圆星宇月岛,29.871032425524497,121.55084274740256
冉家坝    太阳园 距5号线-冉家坝754m,39.97647381360622,116.34739597097115
大石坝    东海岸 距5号线-大石坝1469m,29.57628040080443,106.50026303463899
黄兴    延吉五村 距8号线-延吉中路397m,28.141121622159424,113.11808403632693
蔡家    隆鑫爱琴海(商住楼) 距6号线-蔡家1249m,43.41622085550668,124.67572056081994
观音桥    祺山品阁 距6号线-黄泥塝839m,29.590728322882107,106.539687238034
浮桥    上上海花城,31.617695561617982,121.22609678888344
莘庄工业区    颛桥紫薇花园 距5号线-颛桥475m,31.18595431277102,121.38380537031784
车陂    阳华国花苑 距21号线-棠东1947m,23.119957617821548,113.40644792019255
芦台镇    福康花园,23.30823291803246,113.83089826165298
席王    万象湾优樾 距1号线-纺织城1956m,34.29598483762967,109.08144709249525
平江新城    锦华星光花园 距4号线-平泷路西1304m,31.358432969721118,120.6176467093351
红庙坡    西安国际商贸基地二期 距8号线-红庙坡站1011m,34.31560287443146,108.98975722875291
广州雅居乐    雅居乐剑桥郡剑桥汇 距7号线-板桥1953m,23.016402272892897,113.37237519221034
高铁新城    融信天澄 距7号线-常楼站514m,31.61661000908202,120.97565586016236
经开区    海港江南世家 距环线-海峡路737m,30.544261536909637,104.1964937089113
空港新城    强辉金色池塘 距9号线-春华大道1499m,40.111317977255055,116.55039765520193
弹子石    泽京微V,30.861289477524796,108.01699485810546
荣昌城区    天正宏博华盛春天,29.419481868944985,105.61365427116878
松江新城    月亮河桂园(公寓住宅),31.038478666818662,121.19220075758378
萝岗    大壮国际广场 距7号线-科丰路693m,23.16894417648375,113.47939311232575
金泘沱    金辉世界城D区 距4号线-金滹沱764m,34.18797981573537,108.97220802214052
横岗    信义锦绣花园 距14号线-四联站424m,25.032056371679133,121.58259477211551
上杭路    万欣城枫园 距4号线-万东路787m,39.12891717937735,117.2704910299719
三峡广场    金沙国际 距环线-沙坪坝507m,29.5632140125847,106.46887597063906
空港新城    中航中央城 距9号线-兴科大道1104m,39.93385120026119,116.41355212940621
坪洲    宝源新村 距1号线-西乡748m,22.56176633614638,113.8614083099838
辛家庙    汇林华城(A区) 距3号线-辛家庙1628m,34.30880589006554,108.98961502699069
运东    三千邑,29.799605489292066,119.69290638716629
北外滩    长江大楼 距12号线-提篮桥409m,31.257469888676894,121.51527651390847
国展中心    曲江汇景新都 距8号线-电视塔站790m,24.681038202221455,113.6058553941815
淞宝    友谊路4弄小区 距3号线-友谊路1847m,31.395758196414494,121.50480775132573
碧海湾    松茂御龙湾 距11号线-碧海湾430m,22.5829185465865,113.86659683277716
太华北路    凤鸣华府(未央) 距8号线-市第三医院站217m,30.338515685933746,103.27490151502873
国贸    光华路小区 距10号线-金台夕照924m,39.91645575947582,116.46703499370652
东南开发区    华润橡树澜湾(东区),39.918025103672576,116.38319452351037
坑口    保利西悦湾 距1号线-坑口1014m,23.15951580342296,112.56545376304568
浏河    东海二村,34.54791862736427,118.75956509248417
体育馆    诚基中心国际公寓 距1号线-营口道281m,40.15283403375312,117.08477301324473
嘉禾望岗    岭南新世界 距3号线(北延段)-嘉禾望岗1380m,25.591099109783492,112.37046909623365
较场口    和平路凉亭子7号小区 距2号线-较场口50m,29.55994023705038,106.579575775547
百草路    龙城高新天地 距6号线-天宇路1145m,30.705872783492556,104.11391571727886
石桥铺    龙湖新壹城(商住楼) 距环线-陈家坪622m,30.10061484327387,106.62407155466754
温江城区    洲际健康城,31.25104095682508,121.46016062002155
江汉路    京汉城市广场 距1号线-大智路43m,30.599782478673223,114.30376369170953
弹子石    雅云苑 距环线-弹子石1038m,29.590050248479805,106.60516508595688
龙华中心区    壹成中心第五区 距4号线-龙华1787m,22.657410791068465,114.0288450908832
新桥    聚丰苑,31.09095177477373,121.34472638571728
清河    强佑清河新城(西区) 距昌平线-清河小营桥1198m,42.5558058974241,124.16396300839902
曾家    龙荫小区,29.56518735245326,106.31125569268836
白云大道北    陈田福庆花园 距2号线-江夏892m,31.141021478163914,121.56501021033233
胡家庙    唐韵三坊(一期) 距3号线-胡家庙1213m,34.28610910016719,109.00995320271988
龙兴    黄金嘉年华 距4号线-龙驿大道405m,30.931028422836086,121.6892922149266
沙太北    白云农工商宿舍 距3号线(北延段)-同和181m,23.203816930455964,113.33337400087981
石桥铺    九龙坡华宇时代星空(商住... 距5号线-歇台子143m,29.53995455442895,106.4844244712145
李家沱    曦圆理工佳苑 距18号线-重庆理工大学1006m,29.463755492033517,106.56343430350465
汾湖    月亮湾(二期),31.02675466029499,120.84142260678966
人民广场    AC世纪城,38.91854023715633,121.62353238888251
蔡屋围    中海天钻 距9号线-鹿丹村806m,22.54487401469998,114.11646500182255
南联    龙河路自建房 距3号线-南联990m,22.722011244819086,114.2692191588273
钰华街    玺悦峰,39.91112918187695,116.64573769355353
金牛万达    龙湖上城(商住楼) 距1号线-人民北路165m,30.691182132622377,104.07569964495117
松江大学城    文翔名苑(别墅),31.055849491578385,121.2029109846876
龙洲湾    旭辉城(商住楼) 距3号线-学堂湾529m,29.407708669040417,106.54922661373298
平凉路    申泉小区 距18号线-丹阳路610m,31.259566438901427,121.53471871972202
惠南    华实佳苑,39.91535594489036,116.34825088832498
土主    融创文旅城御林组团,29.663041553763478,103.85577037012585
牛市口    华成苑 距2号线-牛王庙1156m,30.647326077937056,104.10358646154184
盘龙    盘龙金茂悦(商住楼) 距2号线-大堰村1409m,25.069318033622885,102.73593885904357
圣灯路    东城映象A区 距7号线-二仙桥997m,30.68156238180185,104.13090761515285
刘家坪    聚金茗香苑,32.796542909440284,104.82829308425828
曾家    康田夏歌园,29.5617252249466,106.30700598898315
彭浦    彭七小区 距1号线-彭浦新村663m,31.312711429007905,121.45912622122681
龙洲湾    旭辉城(商住楼) 距3号线-学堂湾529m,29.407708669040417,106.54922661373298
石桥铺    汇祥荟广场 距环线-陈家坪284m,29.524011517043387,106.47698039311688
天通苑    天通东苑一区 距17号线北段-天通苑东1378m,40.071134211955815,116.43160429727362
礼嘉    华侨城华悦中心 距6号线-欢乐谷199m,29.683870898089904,106.50305523765473
空港新城    中航中央城 距9号线-兴科大道1104m,39.93385120026119,116.41355212940621
龙城国际    愉园新苑 距16号线-回龙埔1334m,41.59846852304986,120.44356686930357
王家墩CBD    华发中城荟 距3号线-范湖799m,30.878851874560002,121.5565806910878
杨舍    福东苑(南区),31.913578127781257,120.564098987377
弹子石    泽京微V,30.861289477524796,108.01699485810546
瀛海镇    万和斐丽 距8号线南段-瀛海1218m,39.76240776032458,116.45851645238596
上沙    上沙塘晏村 距7号线-上沙781m,22.52785958857512,114.04151937314984
迎新街    前进里(大港),39.18045633511277,117.11831160878195
高行    森兰美伦 距6号线-洲海路989m,31.295697854072316,121.62008909403221
大坪    奥园康城(A区),29.535715460979116,106.53143944599688
临港新城    绿地临港家园海洋小区,28.864522316699368,105.9278882757466
西安奥体中心    1668新时代广场 距3号线-国际港务区970m,34.367774489116684,109.03867903665686
钟家村    远洋国际中心 距4号线-钟家村681m,31.38269667943434,121.22443914572588
龙洞    宝翠园 距6号线-植物园1467m,35.272869414088866,113.1406250512824
石桥铺    汇祥荟广场 距环线-陈家坪284m,29.524011517043387,106.47698039311688
电子正街    中环国际城北区 距8号线-东仪路站1556m,31.29669845714138,121.41749452185854
盘龙    中粮鸿云 距2号线-大堰村1388m,31.405993244391343,121.46367200642952
龙洲湾    一城龙洲 距3号线-鱼胡路645m,29.382725699778433,106.53773189643108
红光    龙城国际五期(商住楼) 距6号线-红高路845m,30.762175424980338,121.36280298749456
茶园新区    中国铁建万国城(一期) 距6号线-刘家坪1472m,29.522141078461516,106.57562736350975
天穆    金侨宸公馆(二期),39.20774006373754,117.15617087416108
大石    祥和路小区 距3号线-大石1067m,23.0304141077005,113.32413196430456
永川周边    同心苑B区,23.101646535084186,113.17777347303708
大芬    倚龙华庭 距3号线-大芬176m,22.617256723329216,114.14450381169623
江湾    佳伟小区 距3号线-江湾镇1562m,31.31083303724092,121.47983243272347
龙头寺    鲁能星城二街区 距10号线-龙头寺公园192m,29.622574572612788,106.55580427616651
亚运城    亚运城天峯,22.95150613649173,113.47914302407185
金山新城    万达广场(金山),25.22192577305883,121.61738317819064
龙兴    天堡家园,29.117324664467382,106.54097226406562
塘市    南湖苑(西区),30.761811575899863,120.77651805742163
李家沱    时代壹佰 距3号线-九公里1361m,29.470259935756562,106.5527927069453
南浦    锦绣半岛,28.669296419061677,115.90260770775845
新牌坊    云天千年禧 距3号线-嘉州路881m,23.21113050507408,113.28615322430515
机场    翼之城,40.049505998390885,116.64861954746009
丈八西路    里花水社区 距西安高新云巴线-东滩138m,30.03474231033006,119.39986863626355
大学城    恒大未来城三街区,40.012452701736706,116.41380545156004
康桥    中邦城市 距18号线-康桥391m,31.220234266080123,121.70576093967158
三峡广场    石小路68号小区 距1号线-马家岩353m,29.5632140125847,106.46887597063906
麓湖生态城    复地御香山 距1号线-广福705m,30.468660911928463,104.0725329383674
娄东    花样年幸福万象,31.465382691225713,121.12305809265023
上钢新村    上钢一村 距13号线-成山路438m,31.177433941192184,121.4914082670167
香山    蔚蓝四季花园,33.806733230696814,113.17889612636148
双福新区    恒大金碧天下观天下,25.03734725342717,102.69895930426259
江岸周边    美联城观 距6号线-石桥864m,30.63696386864652,114.28126401326222
清湖    玉翠新村三区 距4号线-清湖北1766m,41.20107476294455,123.21681240580767
斑竹园    源上湾映江南 距5号线-廖家湾1183m,30.814913483625563,104.10007902767813
大石    大石迎龙坊大街自建房 距3号线-大石411m,22.929324858552793,113.09608803778634
下朱庄街    静湖花园(西区),31.06004197486962,121.5131587586687
唐镇    培元新苑 距2号线-创新中路653m,31.216838837693654,121.67577702886787
松江新城    华亭首府(公寓住宅),31.036428072659447,121.19192551677554
郭巷    国泰二村 距2号线-郭苑路1341m,39.91277841168756,116.45527240169777
菊园新区    胜悦嘉苑(西苑) 距11号线-嘉定西797m,31.377276730352968,121.23152039823049
九亭    九里亭小区 距9号线-九亭1341m,31.148802893394805,121.31927604316134
长阳    首开熙悦山澜庭 距房山线-长阳591m,30.478645783055725,111.21350712887026
金虹桥    万源新城(南区) 距9号线-合川路680m,39.804962205335656,116.43579498230822
松江新城    月亮河桂园(别墅),31.038478666818662,121.19220075758378
黄兴    控江大楼 距8号线-黄兴路158m,28.141121622159424,113.11808403632693
梅林关口    白石龙二区 距4号线-白石龙1042m,32.913943468074955,109.62054295616244
果园新村    朝阳里(北辰),39.23076060226059,117.14491860951254
大浪    澳华新村 距6号线-元芬站1494m,22.671884270870837,114.0131963394129
镜湖大道    碧桂园星港国际 距9号线-莲塘1109m,40.32066299955368,116.66153475526869
爱博    爱博二村,35.177308063756,113.07047799095812
弹子石    泽科弹子石中心 距环线-弹子石364m,29.590552994451187,106.59845501329121
车陂    佳兆业1号 距5号线-车陂南363m,23.119957617821548,113.40644792019255
马连道    马连道北街小区 距7号线-达官营333m,37.368048524314176,116.20376060297826
关山    保利时代(南区),30.49470882922495,114.41355171656141
七里庄    鼎恒中心 距14号线-七里庄565m,39.87040909065006,116.29638003326232
空港新城    中航中央城 距9号线-兴科大道1104m,39.93385120026119,116.41355212940621
双福新区    中骏雍景湾,31.122859758565916,121.04681531079638
工业大道北    保利丰花园 距8号线-同福西340m,31.639457726426173,120.80191836436066
天回镇    芙蓉锦绣天城 距3号线-植物园1052m,30.759283988937153,104.10918982182142
龙洲湾    龙洲花园 距3号线-学堂湾1348m,29.407708669040417,106.54922661373298
上海南站    正南花苑 距1号线-上海南站518m,31.159438874262317,121.43586513902925
龙头寺    仁安龙城国际(三期) 距10号线-龙头寺公园671m,29.622574572612788,106.55580427616651
杨家坪    百康年世纪门 距18号线-杨家坪330m,29.51753373894537,106.52194777032048
经济技术开发区    尚品雅苑 距2号线-大明宫西158m,22.615464117902995,114.16062165830368
国贸    新街大院 距10号线-金台夕照947m,30.595727951384795,121.10620399484148
天河智慧城    万科云城米酷 距21号线-天河智慧城720m,23.17738368154778,113.41742449487644
万博    敏捷上城国际 距7号线-南村万博1274m,22.561019317240294,113.94979205009803
龙岗中心城    竹湾村 距3号线-南联1084m,22.724160962387074,114.25664602576106
复兴    和泰家园350号小区 距6号线-刘家院子702m,24.71946276213138,121.37206576113371
中央公园    创客公寓 距5号线-中央公园西202m,40.08196959964644,116.25386772500262
常州道    倚营里 距2号线-翠阜新村146m,39.147996257283424,117.26130765274338
石桥铺    汇祥荟广场 距环线-陈家坪284m,29.524011517043387,106.47698039311688
茶园新区    光华安纳溪湖观澜 距6号线-茶园1954m,29.522141078461516,106.57562736350975
黄浦周边    惠祥公寓(黄浦) 距4号线-西藏南路646m,31.20514208448007,121.49435542773382
茶园新区    同景国际城星时代 距6号线-邱家湾372m,29.522141078461516,106.57562736350975
航空港    华丰食品城 距8号线-川大江安校区1175m,31.21982145391194,121.43537942524
南滨路    洋世达南滨特区 距10号线-后堡1645m,29.544458585957862,106.58363431983975
新牌坊    碧桂园嘉誉 距环线-民安大道903m,23.21113050507408,113.28615322430515
寸滩    绿地保税中心(一期) 距9号线-保税港141m,29.628129915391902,106.59076102660079
金桥    碧云新天地家园(一期) 距6号线-博兴路392m,39.74389814478484,116.57532150089848
大学城    方圆大学时光 距7号线-大学城南912m,36.792127857694084,121.1790988818902
龙洞    宝翠园 距6号线-植物园1467m,35.272869414088866,113.1406250512824
攀成钢    天誉5区 距8号线-东大路164m,40.221665449003616,116.23419070212876
天山    天申小区 距2号线-北新泾550m,43.80027135831345,87.63840777756565
大峪    大峪南路小区,39.93948081491663,116.1057597837061
几江城区    水木年华朗苑,37.85343342071212,113.60656821421946
郭巷    中海独墅岛,39.92297763515666,116.39409034053254
盘龙城    名流人和天地润和园,30.728691615828662,114.2773690504015
布心    今日家园 距5号线-布心471m,22.583834713026135,114.14600811410273
茶园新区    长青湖 距6号线-茶园1785m,27.73753570849307,112.00715491250668
黄石    白云尚城 距2号线-江夏444m,23.213783273915798,113.28482759486451
黄埔港    中交港湾国际 距13号线-裕丰围1020m,23.102798260916153,113.461113942662
体育中心    时代奥城商住楼 距6号线-水上公园东路475m,39.073538123298995,117.18448887739652
新塘    永荟广场,23.164767955297243,113.62917944758762
悦来    嘉悦江庭 距6号线-高义口842m,30.624779628380818,106.61233357622976
万新街    畅悦华庭 距10号线-万山道站663m,39.12948925041923,117.29788988700952
长阳    首开熙悦汇 距房山线-长阳324m,30.478645783055725,111.21350712887026
鱼嘴镇    中商两江公馆 距4号线-鱼嘴680m,29.62851466035938,106.76781398832023
关山    光谷青年城(一期) 距2号线-珞雄路1938m,31.150084139164058,104.00183081506853
加州    金龙路268号小区 距3号线-红旗河沟940m,30.695807964099412,104.05807039931786
大竹林    龙湖九里峰景 距6号线-九曲河207m,29.629213429399794,106.4833865690286
宝安机场    下十围下沙南 距1号线-机场东581m,22.652496013336236,113.83322927462005
硚口周边    长丰城(H5区),30.615307666920263,114.21826423089755
石井坡    信达滨江蓝庭 距1号线-石井坡567m,39.90877570866832,116.36951602550994
川沙    华兰雅苑 距2号线-凌空路1130m,31.480664817329266,121.37802073198634
望京    费家村住房 距15号线-崔各庄1953m,40.02189033683905,116.51207998452107
大学城    金科廊桥水乡四组团,31.20967444185465,121.32438856931026
土门    富力开远城A区 距8号线-土门站778m,34.2647810426256,108.88601390167767
南坪    贝蒙松藻中心 距10号线-万寿路458m,28.990898870063365,106.62500748686857
"徐家汇    文定路85,87,89号... 距9号线-徐家汇435m",31.194186321625786,121.43989727314133
高铁新城    融信天澄 距7号线-常楼站514m,31.61661000908202,120.97565586016236
果园新村    朝阳里(北辰),39.23076060226059,117.14491860951254
南稍门    大话南门 距5号线-南稍门400m,34.24700347788212,108.95316214871798
西长安街    长安新界 距2号线-凤栖原814m,31.510459876741677,120.95206896255633
光明    宏发万悦山(一期) 距6号线-光明大街站949m,39.92122994788037,116.54594188021134
徐行    馨品嘉苑,31.422139270053655,121.28689724986803
香雪    大塱罗南花园 距6号线-萝岗1486m,23.179220950315834,113.49864676380639
德感片区    荧鸿城(一街区),34.015759132808405,108.75259918428566
福永    会展湾水岸广场 距12号线-国展北990m,22.70985034231948,113.78522301970773
加州    中海寰宇时代 距3号线-红旗河沟357m,39.92297763515666,116.39409034053254
观音桥    招商锦星汇 距9号线-蚂蝗梁898m,22.790327530642152,113.8917221683913
前海    心语雅园 距9号线-荔林1020m,39.86677383284321,79.07237708705797
娄葑    群星苑三区 距7号线-群力站974m,31.28509825477803,120.66439650434648
石坪桥    万科西九(二期) 距18号线-石坪桥626m,40.07558875358126,116.31772134675452
马驹桥    米拉小镇(商住楼),39.92604211806524,116.44902926823397
鹿角    樵坪春晓安置房小区(一期...,29.137521288558787,108.29567445682379
学府大道    中梁百悦汇 距3号线-六公里680m,30.544155865855814,104.88464693296848
川沙    新川苑 距2号线-川沙1128m,31.19880724218234,121.70030085912083
唐镇    培元新苑 距2号线-创新中路653m,31.216838837693654,121.67577702886787
花木    培花七村 距18号线-芳芯路494m,31.197093439935003,121.56330262138842
弹子石    天誉智慧城(商住楼) 距环线-弹子石1154m,29.592204744087578,106.60467002979051
正兴    融创玖棠府(商住楼) 距19号线-正兴湾1837m,30.441253891072925,104.04912812728824
东渚    龙惠花苑(一二期),31.34610005549206,120.41633150386876
天星桥    融汇温泉城锦绣里 距9号线-天梨路1633m,29.558546593866826,106.44679651951661
南翔    嘉宝小区 距11号线-南翔1350m,31.300678777849367,121.32705743498042
李家沱    保利林语溪(商住楼) 距3号线-八公里635m,29.466024654394168,106.56297320328652
寸滩    绿地保税中心(二期) 距9号线-保税港167m,29.628129915391902,106.59076102660079
九亭    上海青年城 距9号线-九亭247m,31.142788924897264,121.32417099971576
关山    阳光尚东 距2号线-珞雄路1388m,31.150084139164058,104.00183081506853
香蜜湖    兰江山第,22.571252944913283,114.02013395286416
万博    招商城市主场(商住楼) 距7号线-南村万博1077m,22.561019317240294,113.94979205009803
合川大学城    东邦花果山,30.00825635017399,106.24120853614298
新牌坊    碧桂园嘉誉 距环线-民安大道903m,23.21113050507408,113.28615322430515
温江城区    洲际健康城,31.25104095682508,121.46016062002155
南桥寺    金科10年城西区 距环线-体育公园1286m,29.59588792883395,106.48896387844657
新区    广州融创文旅城,23.438597624278948,113.23506937471667
南坪    海棠晓月蓝滨城 距环线-海棠溪859m,28.990898870063365,106.62500748686857
马安山    黄埔二区,23.166784897695525,113.49110036871122
双街镇    双街新家园,39.268389075520055,117.11457196294391
交大曲江校区    华润置地时光里 距8号线-缪家寨站1111m,24.688407846380294,113.61150106464875
挂甲寺    云广新里 距1号线-土城936m,39.10541028790888,117.23334519882879
枫泾    龙信御澜天樾,30.84728657867802,121.03844633734322
钟家村    远洋国际中心 距4号线-钟家村681m,31.38269667943434,121.22443914572588
李家沱    斌鑫江南御府,29.444258661162753,106.54875123045724
江桥新城    金鹤新城金霞苑 距13号线-金运路778m,41.83380964812412,123.54716937744348
龙溪    金城国际 距6号线-花卉园830m,45.55025192520799,126.98177149528703
杨家坪    正升百老汇 距18号线-杨家坪20m,29.51261085344824,106.52880238034265
物资学院路    天赐良园(东区) 距6号线-物资学院路375m,39.931719823227354,116.64840790668194
加州    君悦世纪 距环线-民安大道1073m,30.695807964099412,104.05807039931786
康健    徐汇长青坊 距1号线-上海南站1643m,30.79802318351739,103.78679516073441
双港    富力桃园天域园 距6号线二期-双港440m,47.286267328178155,130.29142965692074
宝体    名门华府 距1号线-宝体558m,31.250053988426806,121.5597136213844
前川    书香名邸,30.89232647522604,114.3729756159979
挂甲寺    汇文名邸 距1号线-土城641m,39.10541028790888,117.23334519882879
亦庄    小康家园,39.82695195700018,116.52777005805
朝青板块    小悦中心 距6号线-青年路1427m,30.676602746474504,104.08297852466798
永和    金地香山湖,25.01050445234519,121.52451442921081
航天城    中铁新城 距4号线-东长安街1404m,40.085649091328975,116.27680802230257
龙归    长红竹仔园南路2号自建房,23.281859926223596,113.3148054870114
百草路    龙城高新天地 距6号线-天宇路1145m,30.705872783492556,104.11391571727886
五路口    解放路民乐园万达广场公寓 距4号线-五路口418m,29.873897846755572,106.52277394189774
小淀    华实道77号楼,39.91535594489036,116.34825088832498
嘉定新城    海伦堡海伦广场 距11号线-嘉定新城1095m,47.47043887638964,126.97987750794978
汉口火车站    福星惠誉福星城(南区) 距2号线-长港路863m,30.621623370128553,114.26181327354631
观澜    珑门,22.729370312616417,114.03510924469386
航头    沪航公寓 距18号线-航头1185m,31.03409330060773,121.60210393975585
金泘沱    金辉环球广场 距4号线-金滹沱1097m,39.93050275265966,116.4141169839109
寸滩    绿地新里樱园 距9号线-保税港318m,29.611800746368225,106.5786800751233
观音桥    煌华晶萃城 距9号线-观音桥578m,29.359843687461733,120.17150299152829
红星路    城市博客VC时代 距3号线-市二医院678m,30.66642884228727,104.11241563690774
大坪    恒大名都(商住楼) 距1号线-石油路861m,31.13195709230715,103.82740225283801
亭林    亭林华城康宁嘉园,30.906884868874194,121.33218702893404
莘庄南广场    顾戴路2688号商住楼 距12号线-七莘路467m,31.109821580963143,121.39530925033974
五里店    卓越皇后道 距6号线-红土地992m,29.584197543273156,106.56393412069023
云岗    聚源阳光新城(3号院),30.950896516699345,103.68577334003221
龙头寺    招商花园城悦园 距3号线-龙头寺143m,31.269242666190056,121.66510659669815
九宫庙    仁有逸景 距2号线-新山村1029m,29.476996946924796,106.48936955321474
马陆    金地西郊悦章 距11号线-马陆1121m,31.339173109302575,121.29012324461547
大源    中海兰庭 距5号线-大源701m,39.92297763515666,116.39409034053254
礼嘉    华侨城天际湾B区 距6号线-欢乐谷186m,29.683870898089904,106.50305523765473
街道口    三鸿领域 距8号线-马房山1658m,39.88593263663776,116.6888687546485
龙凤桥    溪岸新居 距6号线-西南大学552m,29.819189952581667,106.43033596935722
油松    龙湖春江天玺,23.37777578062844,116.7235246469334
南翔    云翔佳苑(西区),31.29711586690728,121.33468198265746
梨园路    梨园公馆 距8号线-红庙坡站826m,23.16532797096623,113.32187497171148
莘庄南广场    长寿新村(闵行) 距1号线-莘庄1139m,31.109821580963143,121.39530925033974
三林    永泰花苑 距11号线-三林1090m,25.872787263195903,118.93843072857337
观音桥    红鼎国际名苑 距9号线-观音桥254m,22.685304017389207,114.13037696942042
航天城    金旅南星台 距4号线-东长安街1691m,40.085649091328975,116.27680802230257
徐汇滨江    东安五村 距7号线-龙华中路773m,31.196415184750872,121.46989906022468
凤天路    怡润居 距直快列车-重庆图书馆650m,40.01370380710311,116.47468119054635
嘉禾望岗    岭南新世界 距3号线(北延段)-嘉禾望岗1380m,25.591099109783492,112.37046909623365
石桥铺    康德城市风云 距1号线-高庙村823m,29.524011517043387,106.47698039311688
奥体中心    金茂未来域 距2号线-袁家岗723m,39.993300002599206,116.40041207572847
甘泉宜川    宜川一村 距3号线-中潭路1403m,36.28268861905286,109.35752350453788
体育中心    时代奥城商住楼 距6号线-水上公园东路475m,39.073538123298995,117.18448887739652
油松    共和综合楼,36.28870331786534,100.62662348005355
长兴岛    长兴金茂逸墅(公寓住宅),39.609477830949906,121.46968184995237
九棵树    九棵树家园,39.883405409291555,116.65754996185697
八角    八角南路社区 距1号线-古城866m,39.91517477364989,116.20273644486632
中新镇    凤秀家园 距21号线-凤岗1276m,23.287984216493363,113.66949998022021
渝中区观音岩    昆榆名仕城 距10号线-七星岗308m,29.56207739638112,106.57177120744835
春申    虹梅南苑 距15号线-虹梅南路1376m,31.112875696600664,121.41179809712813
中海    锦麟铂悦府 距6号线-涵青桥站378m,39.92297763515666,116.39409034053254
大石    郭家坊街自建房 距3号线-大石857m,22.929324858552793,113.09608803778634
大溪沟    溪江悦 距2号线-大溪沟546m,30.72317221184354,103.48097657190083
寸滩    绿地保税中心(二期) 距9号线-保税港167m,29.628129915391902,106.59076102660079
市桥    南郊村,22.934119385898523,113.37435954908123
万家湾    光华逸家 距4号线-中坝548m,30.67616488172605,103.97132696503564
茶园新区    同景国际城香溪迈上 距6号线-茶园1018m,29.522141078461516,106.57562736350975
刘家坪    中国铁建新万国城 距6号线-刘家坪1228m,32.796542909440284,104.82829308425828
温泉    北辰香麓雅庭,39.2303439099184,117.14140273157703
奥体中心    上城奥悦 距2号线-袁家岗785m,30.232618187567876,120.20428990179938
铜梁城区    罗曼山,29.830676107165655,106.05767725239635
徐东    三角花园刘家河小区 距7号线-湖北大学534m,24.271463380498833,116.12200930645969
公明    将石旧村,22.785134526043514,113.90322883315646
盘龙    盘龙金茂悦(商住楼) 距2号线-大堰村1409m,25.069318033622885,102.73593885904357
甪直    鸿运家园(吴中),31.227141863669313,120.88394003539078
华泾    紫阳花苑(501弄) 距15号线-景洪路1744m,31.245259001357866,121.09058380948123
崔家店    龙湖梵悦台 距8号线-东郊记忆817m,23.37777578062844,116.7235246469334
南岗    佳兆业城市广场(商住楼) 距13号线-南岗1720m,45.751688839076955,126.6948242391136
龙岗中心城    万科清林径(二期),22.756888117399452,114.23764758287571
石桥铺    龙湖新壹城(商住楼) 距环线-陈家坪622m,30.10061484327387,106.62407155466754
龙洲湾    旭辉城(商住楼) 距3号线-学堂湾529m,29.407708669040417,106.54922661373298
果园新村    都旺新城菊芳园,39.23235859845862,117.14963776767866
中新生态城    力高阳光海岸欣海苑,31.010348630626336,105.17566216564205
东圃    盈彩美居 距5号线-三溪1921m,23.12432511045114,113.41569687372022
石桥铺    龙湖新壹城(商住楼) 距环线-陈家坪622m,30.10061484327387,106.62407155466754
谢家湾    聚金万佳苑 距环线-谢家湾800m,29.5282332716243,106.5189156299031
赵巷    崧泽华城观景雅苑,31.143964319596407,121.16348920670443
关山    泛悦城 距2号线-华中科技大学260m,31.150084139164058,104.00183081506853
鸿恩寺    财信北岸铂寓 距9号线-李家坪1166m,29.57578276589539,106.51401824792542
龙城国际    天健云途 距16号线-回龙埔1329m,41.59846852304986,120.44356686930357
万达广场    万达广场(常熟市),31.690130284805353,120.73944507885538
大学城    协信城天骄名城(三四期),29.52789370878533,106.57784842388244
光谷软件园    金地格林东郡,28.55162663391474,107.52875169742761
合川宝龙城市广场    义乌鑫城(北区),30.358538726268186,105.93170536759912
嘉定新城    永盛公寓 距11号线-嘉定新城1254m,28.25184680702107,103.72987941057426
南汇周边    远星铂雅华庭 距16号线-临港大道882m,31.06285224949284,121.79462689021275
滨江中    远安小区 距6号线-东湖1376m,30.214332950144062,120.21847118139375
谢家湾    万象雅居 距环线-谢家湾716m,29.52205677197638,106.522200733152
高碑店    高碑店村东区 距八通线-高碑店949m,39.336347763739255,115.88156913859761
二郎    中航九悦荟 距环线-二郎388m,29.509945993540192,106.45598771200001
清湖    清湖新碑村 距4号线-清湖北699m,28.42134962478291,117.35435232500184
香花桥    民惠佳苑(十一区公寓住宅...,31.22088857002306,121.11771910368223
动物园    首创花与城(一期) 距3号线-动物园1350m,39.943551893009165,116.35272534807018
天河公园    历徳雅舍 距11号线-华景路773m,23.12908994461827,113.37152602401203
龙华区政府    陶润懿峰(商住楼) 距4号线-竹村962m,20.025602263126775,110.33264597971713
辛庄    首创城星景苑,37.45222925448978,116.1008939322502
海上世界    壹栈太子湾人才公寓 距12号线-太子湾515m,22.509143524722766,113.92121928742938
弹子石    泽京微V,30.861289477524796,108.01699485810546
西北旺    芳怡园 距16号线-西北旺872m,40.049709179484495,116.27435744487136
碧海湾    华丰前海湾(二期) 距11号线-碧海湾1428m,39.86677383284321,79.07237708705797
新天地    西藏南路1207弄小区 距9号线-陆家浜路244m,39.92120311004761,116.61235495402228
万博    广晟万博城 距7号线-南村万博330m,22.561019317240294,113.94979205009803
大坪    奥园康城(A区),29.535715460979116,106.53143944599688
滨江中    远安小区 距6号线-东湖1376m,30.214332950144062,120.21847118139375
光明    绿地新都会 距6号线-光明大街站324m,22.767520369746606,113.9494740499476
陈家桥    西著七里四组团(商住楼) 距1号线-微电园1208m,30.40698350736543,103.63862766178258
合川大学城    亲亲里,30.01034140760386,106.25293438745638
长桥    长桥四村 距15号线-罗秀路531m,31.1399378439366,121.44602802858583
南营门    文化村小区 距3号线-西康路884m,40.15609077638927,116.57694572709106
罗店    美兰湖颐景园 距7号线-罗南新村926m,41.20107476294455,123.21681240580767
火车东站    雪松雅居乐IN天府 距7号线-成都东客站1018m,32.99307566400509,114.03766404032183
西寨    金品佳苑,34.49920103701004,103.81374109213391
大学城    协信城天骄名城(三四期),29.52789370878533,106.57784842388244
加州    龙湖佰乐街(商住楼) 距3号线-红旗河沟429m,23.444279274608878,116.76134519533254
刘行    馨佳园十一街坊 距7号线-刘行706m,35.27089063931491,117.01859322937472
芍药居    芍药居南区 距10号线-芍药居714m,22.954085880136002,120.19337968747016
鸳鸯    复地上城 距3号线-鸳鸯837m,29.67235486994747,106.56604980982664
加州    财信城市国际 距3号线-嘉州路917m,30.695807964099412,104.05807039931786
老闵行    兰坪二村 距5号线-江川路647m,31.333263748811046,109.66415479036634
草滩    汉都新苑(东区),34.36714598746241,108.91517496463423
玉泉营    三环新城6号院 距10号线-丰台972m,39.85722827156616,116.31399283990481
富力城    天赐颐府 距4号线-航天大道645m,39.90166304624212,116.46296701720459
西乡    华丰前海湾(一期) 距11号线-碧海湾895m,32.98939744189546,107.77339281906241
杨家坪    金茂珑悦(南区) 距2号线-袁家岗874m,29.51261085344824,106.52880238034265
西永    龙湖好城时光 距1号线-微电园473m,29.602869990449168,106.38381272701083
中梁山    斌鑫中央国际公园(AB区... 距5号线-半山1555m,29.48790484720695,106.45222291360894
三峡广场    世纪银河 距环线-沙坪坝163m,29.5632140125847,106.46887597063906
黄桥    荷馨苑,30.637093441052592,104.08192454281313
刘家坪    聚金茗香苑,32.796542909440284,104.82829308425828
西北旺    唐家岭新城(西区),40.07132207538656,116.28023802223133
钰华街    金和园,30.69545892286454,104.03964561432491
白云大道北    陈田福庆花园 距2号线-江夏892m,31.141021478163914,121.56501021033233
八里小区    金珠苑小区 距7号线-八里庄342m,39.93308134233999,116.30808073202144
大坪    华宇渝州新都 距1号线-石油路369m,31.13195709230715,103.82740225283801
世纪城    香月湖香悦城 距5号线-大源1390m,26.60990794597814,106.63966199380076
五里店    阳光100城市广场 距6号线-五里店1049m,29.586109222844915,106.57029124912114
西渡    鸿宝二村(公寓住宅) 距5号线-西渡589m,30.993898654269735,121.43857397929459
空港    桥达茂宸广场 距3号线-观月路259m,22.877762613987844,114.09433066423345
等驾坡    海伦国际 距3号线-青龙寺1072m,34.23615072558924,109.02463124526128
人和    俊和新青年 距5号线-人和1415m,29.623792837470273,106.5369907943856
大学城    协信城立方一期,31.30419102937554,121.46406465576791
北滨路    寰宇天下天擎 距6号线-江北城590m,31.106868316859266,121.42121431514482
汽博中心    重庆新科国际广场 距3号线-金童路588m,29.64757039315387,106.57475169529891
大学城    龙湖U城3组团(商住楼) 距1号线-尖顶坡322m,23.444279274608878,116.76134519533254
丈八西路    余家庄 距西安高新云巴线-东滩457m,34.20077702841022,108.89722448495056
凤城街道    同元御府华庭,29.85835030595802,107.06971344977516
新都老城区    桂湖名城 距3号线-马超西路1454m,30.820246072370125,104.16093123106009
中央公园    绿城春溪雲庐(一期洋房) 距5号线-鲁家沟576m,40.08196959964644,116.25386772500262
大学城    协信城天骄名城(三四期),29.52789370878533,106.57784842388244
世博    浦东新世纪花苑(二期) 距7号线-后滩618m,31.17615947986959,121.50254303330453
化龙桥    雍江悦庭 距18号线-富华路413m,24.864246727376297,107.22985455264713
鱼珠    华贝和庭,23.121845620692675,113.44018809547508
观音桥    鲤鱼池一村57号小区(商... 距9号线-鲤鱼池843m,31.691627763743668,120.95829035702678
金沙洲    金沙大都汇(一期) 距6号线-沙贝308m,27.465354872613517,106.22644163900851
挂甲寺    云广新里 距1号线-土城936m,39.10541028790888,117.23334519882879
上梅林    银海苑 距4号线-上梅林652m,31.202737216069277,121.46829450692276
北京路    兴隆小区 距2号线-公园前1019m,31.368545326273864,121.26412457637623
海棠溪    和泓南山道 距环线-海棠溪814m,29.54695733420705,106.59266947665613
清河    强佑清河新城(西区) 距昌平线-清河小营桥1198m,42.5558058974241,124.16396300839902
甪直    旭辉和风,31.27895284296739,120.84543803241927
草滩    汉都新苑(西区),34.366073866037716,108.9113321034931
新区    天贵雅苑,36.289973357524204,120.47491862990731
辛庄    首创城明景苑,39.027397841676404,117.34658577107771
曾家    曾家正街自建房,29.115707638046917,108.65638804610022
临港新城    临港海滨国际花园,24.911628010973686,118.59273968199643
珠江新城东    恒大珺睿 距5号线-潭村1237m,31.039212519453635,121.21588062981012
南坪西路    长江小区 距3号线-工贸1144m,31.231151935019668,121.43163690482433
SM广场    中南融创玖华台(商住楼) 距8号线-杉板桥703m,30.675829279829255,104.11834633971517
海椒市    润达丰广场 距2号线-牛市口98m,30.644817830321756,104.1132533067958
刘家坪    象雄花园,32.796542909440284,104.82829308425828
侯台    津洲花园,31.79896263875633,116.51993674417244
东湖高新    碧桂园云玺星荟 距11号线-光谷六路759m,30.418453606969614,114.44668589495805
旧区    东和苑 距9号线-花果山公园917m,22.698557895029104,113.8370016187774
大石坝    恋恋上层 距5号线-大石坝419m,29.578406138561412,106.5063711527826
寸滩    绿地保税中心(二期) 距9号线-保税港167m,29.628129915391902,106.59076102660079
韦曲    天浩上元郡(一期) 距2号线-航天城1389m,34.164915878664615,108.94122860917068
杨家坪    蚂蚁公馆 距2号线-动物园1793m,29.51261085344824,106.52880238034265
颛桥    宝铭苑 距5号线-颛桥1808m,31.061068915346898,121.40674746422881
南坪    亚太商谷 距3号线-工贸796m,29.54010813286207,106.56568599609521
坂田    光雅园 距10号线-光雅园站939m,22.62486275219991,114.06982542891265
布心    今日家园 距5号线-布心471m,22.583834713026135,114.14600811410273
杨公桥    华宇林泉雅舍 距1号线-烈士墓527m,40.05015378701956,116.42880230272691
回兴    国际家纺城(A区) 距9号线-青岗坪610m,29.67334548682683,106.6199565844793
城北    新湖明珠城望湖苑 距4号线-江陵西路1102m,36.656293630836586,101.77240488175582
金沙洲    保利西海岸星海花园 距6号线-浔峰岗1584m,23.176579946304642,113.21885352297811
回兴    国际家纺城(A区) 距9号线-青岗坪610m,29.67334548682683,106.6199565844793
枣园    首开康乃馨城,34.2753120018956,108.88035161255662
双山    中交万都汇 距2号线-平安1507m,41.14430575459048,123.02599857141405
辅仁路    康德国会山 距环线-四公里1246m,22.714334653348477,113.83544530448188
北苑    平安嘉苑 距5号线-立水桥南760m,40.00111295265103,116.42281078463645
下瓦房    南华里(河西) 距1号线-下瓦房412m,25.120338541688568,100.83053684415073
岗顶    石牌西路武警大院 距3号线-岗顶297m,28.865361763534672,122.24170517081905
平江新城    锦华星光花园 距4号线-平泷路西1304m,31.358432969721118,120.6176467093351
南桥寺    维丰南桥小区 距环线-南桥寺278m,31.84974952571454,119.94929689973705
大寺    金谊花园,38.99763493329019,117.22847243042047
李家沱    融创金弈时代(商住楼),29.46898445683495,106.5493370154801
曲阳    邮电二村 距3号线-赤峰路452m,31.279446098714125,121.49825829568303
谢家湾    保利花半里玫瑰园 距18号线-石坪桥892m,29.524384170611416,106.52751861193877
香花桥    民惠佳苑(十一区公寓住宅...,31.22088857002306,121.11771910368223
寸滩    绿地保税中心(二期) 距9号线-保税港167m,29.628129915391902,106.59076102660079
沙河    高教大楼 距昌平线-沙河高教园1485m,36.91064259678563,114.55348687432814
体育中心    时代奥城商住楼 距6号线-水上公园东路475m,39.073538123298995,117.18448887739652
南汇周边    中建御湖澜庭,27.993746228005655,120.6873284304502
都江堰城区    水校家属区,30.992139400340886,103.62392006498992
长桥    东湖玉景花园 距4号线-清树湾578m,39.92239821336466,116.33100009880302
固戍    臣田开元广场 距12号线-宝田一路850m,22.597232212983137,113.85114346275523
龙洲湾    旭辉城(三期) 距3号线-学堂湾870m,29.407708669040417,106.54922661373298
木塔寺公园    木塔南苑 距6号线-省体育馆666m,33.053470985247024,120.01335919785893
茶园新区    金科世界城高层区 距6号线-邱家湾698m,29.522141078461516,106.57562736350975
西丽    万科云城(一三期) 距5号线-留仙洞1807m,22.58564366898165,113.95920027319256
南桥寺    龙湖源著(3期公寓楼) 距环线-体育公园776m,23.37777578062844,116.7235246469334
草埔    悦峰尚府 距5号线-百鸽笼1409m,22.591753681350518,114.12391015788678
松江大学城    龙湖星图,31.055849491578385,121.2029109846876
陈家桥    富力院士廷(A组团) 距1号线-陈家桥882m,39.90266393531041,116.4670233157349
赤岗    绿茵翠庭 距8号线-客村1630m,23.093364269310317,113.33251818522075
康桥    中城康桥花园(二期) 距14号线-石芽岭站773m,31.25531317186311,121.46870431389641
双街镇    柴楼庄园,39.27641116468281,117.1115503327
朱村    科慧花园 距21号线-凤岗843m,23.287370613577924,113.68007887505497
周浦    昱龙家园(北区),31.129747794327113,121.60394690334013
三峡广场    华宇广场 距环线-沙坪坝265m,29.5632140125847,106.46887597063906
跳磴    金地自在城愉悦天域 距18号线-跳磴1077m,29.40902622213219,106.43900111413416
北大街    北宁坊小区 距1号线-北大街52m,34.27452186442656,108.95335133185839
等驾坡    西安理工大三期公寓 距5号线-理工大曲江校区594m,34.25959964913155,108.99975312331517
区府    国瑞城(二期) 距2号线-大渡口594m,31.382225626612858,121.27313862301611
席王    高科绿水东城(一期),39.93482727239599,116.4224009776628
新安    君成雍和园 距12号线-宝安客运站400m,34.73438332734371,112.14060970841214
天星桥    蓝溪谷地 距9号线-天梨路681m,30.78713037144961,103.53870698397452
渝北黄泥磅    上品拾陆 距6号线-红土地879m,29.589544830370926,106.5544474755247
兴南街    龙凤里(南开) 距1号线-二纬路490m,39.13766489030964,117.18550036940076
土主    西著七里二组团(商住楼) 距1号线-微电园1201m,29.619333983165518,106.36252899490884
新区    天贵路76号自建房 距9号线-花都广场895m,22.929324858552793,113.09608803778634
蔡家    旭辉紫都1号楼 距6号线-蔡家926m,43.41622085550668,124.67572056081994
大学城    龙湖U城11组团 距1号线-尖顶坡547m,23.37777578062844,116.7235246469334
广州雅居乐    广州雅居乐花园俊园 距7号线-员岗1305m,23.015726207112053,113.38064993341277
百子湾    广百西路18号院 距7号线-百子湾1050m,31.258032482138063,120.53349165254936
司门口    扎珠中街25号小区 距5号线-彭刘杨340m,23.134305582923552,114.43855612537133
郭杜    中海熙峰里 距西安高新云巴线-发展大道1218m,34.16363803385021,108.87368187380613
上梅林    银海苑 距4号线-上梅林652m,31.202737216069277,121.46829450692276
五里店    珠江太阳城(D区) 距9号线-刘家台190m,29.584197543273156,106.56393412069023
新津城区    纯阳花园五期 距10号线-刘家碾1886m,31.769793581117128,121.30081918866166
观音桥    煌华晶萃城 距9号线-观音桥578m,29.359843687461733,120.17150299152829
石桥铺    雨田秫园 距5号线-石新路449m,29.526963165570923,106.4779766139271
川沙    鹤兴苑 距2号线-川沙1245m,31.480664817329266,121.37802073198634
镜湖大道    祈福生活无限 距9号线-莲塘1474m,22.97853548274284,113.3382957269368
石桥铺    龙湖新壹城(商住楼) 距环线-陈家坪622m,30.10061484327387,106.62407155466754
西长安街    金堆城花园西区,34.164360147010825,108.93181319962895
大学城    富力城(二期第一区) 距1号线-大学城1206m,29.605486292789127,106.3118208166845
大石坝    东原D8公馆 距5号线-大石坝141m,29.57520000297561,106.50039715165158
黄村    泰禾中央广场 距4号线大兴线-义和庄470m,23.13287596592442,113.41453752062942
杨思    同祥雅苑东区 距13号线-华鹏路1729m,31.166706220920638,121.50001376431064
空港经济区    万科新里程家园,23.178046965010452,113.46465120026747
新桥    华宇城M10组团(商住楼... 距环线-凤鸣山617m,30.707420311061604,104.04789116060098
大学城    中渝春华秋实(一期),29.57621247382465,106.49834344559534
赤岗    金影花园 距3号线-客村770m,23.09820642287805,113.32798937799369
奥体中心    上城奥悦 距2号线-袁家岗785m,30.232618187567876,120.20428990179938
成仁路    锦城逸景D区 距30号线-锦逸878m,30.59680514983772,104.12073691033832
朝外大街    蓝筹名座 距2号线-朝阳门766m,28.805638309993427,121.14697402245771
文峰街道    开县春天花园,31.174938838642245,108.41455900562303
吴江老城    双板桥路31号小区 距4号线-江兴西路1697m,31.17447121676567,120.63949628408486
大坪    协信阿卡迪亚君临盛世 距5号线-红岩村731m,29.553973683572902,106.49633761922279
龙潭寺    金科天籁城,43.902068047446015,126.59690589398305
二府庄    二府庄龙首塬小区 距2号线-龙首原631m,34.29738352610795,108.94854638551605
兴隆湖    首开龙湖云著二期 距19号线-红莲982m,23.37777578062844,116.7235246469334
金花镇    龙祥苑(花龙门一街) 距9号线-培风1546m,29.970661401540283,103.92612673561071
南坪    升伟一里南滨 距3号线-南坪1141m,29.529313469766954,106.52392413227233
西永    首创光和城(三期) 距1号线-微电园991m,29.602869990449168,106.38381272701083
龙头寺    公园置尚云尚 距10号线-龙头寺公园366m,29.622574572612788,106.55580427616651
庄行    东原璞阅,30.901333267846443,121.40227767567227
杨家坪    艾佳天泰 距18号线-杨家坪199m,29.51261085344824,106.52880238034265
城北    海亮长桥府 距4号线-江陵西路1043m,30.79817308835666,121.21833174622464
马安山    万科星城华府,39.71446720644374,116.06967790560901
龙头寺    商社又壹城 距3号线-郑家院子557m,29.622574572612788,106.55580427616651
空港新城    中航中央城 距9号线-兴科大道1104m,39.93385120026119,116.41355212940621
大足城区    香棠水榭,29.709892252472308,105.74502435534612
大学城    龙湖U城(5组团商住楼) 距1号线-尖顶坡704m,23.444279274608878,116.76134519533254
车公庙    深业中城(商住楼) 距7号线-农林745m,22.690280542015405,114.34400309250826
兴龙湖    宇界维诗卡,23.37777578062844,116.7235246469334
福永    同泰时代中心 距12号线-福永809m,22.684416127962912,113.81097761833139
农业园区    万科朗润园,31.5997974187015,121.81484630995355
科技西路西段    岳旗寨安置楼,34.24257225903091,108.8180709237527
新牌坊    碧桂园嘉誉 距环线-民安大道903m,23.21113050507408,113.28615322430515
观音桥    红鼎国际名苑 距9号线-观音桥254m,22.685304017389207,114.13037696942042
龙洲湾    巴南万达广场(C区) 距3号线-学堂湾306m,29.404311819603166,106.54908342383473
五里店    世纪阳光(江北) 距9号线-鲤鱼池833m,29.584197543273156,106.56393412069023
电视塔    恒大国际公寓 距8号线-电视塔站293m,40.012452701736706,116.41380545156004
广园东    碧桂园凤凰城凤锦苑,40.46582033258959,124.07432038291391
航天城    西韦村 距2号线-航天城734m,40.085649091328975,116.27680802230257
后沙峪    和光瑞府(17号院) 距15号线-花梨坎1958m,39.9591524808926,116.30819266088798
三森国际家俱城    省直机关三爻小区F区 距2号线-三爻1177m,23.319370992623988,113.33294011931865
街口中心区    碧桂园从化1960,23.550392574949797,113.59802702098682
红庙坡    霁虹园小区 距8号线-红庙坡站1382m,34.29256100851049,108.93262697459043
礼嘉    华侨城华悦中心 距6号线-欢乐谷199m,29.683870898089904,106.50305523765473
曹路    金海华城悦虹雅苑,31.287059097024844,121.67781285864514
张江    横沔江路86号楼 距13号线-张江路1202m,,
大望路    京铁瑞园(C区) 距14号线-九龙山1494m,39.17199033685306,117.21602766520743
大学城    协信城立方一期,31.30419102937554,121.46406465576791
长寿路    德怡苑 距3号线-镇坪路386m,31.24918640774167,121.43943752038132
康健    东樱花园 距1号线-锦江乐园911m,39.9049164007282,116.35067882845735
新天地    宝鼎大厦 距9号线-打浦桥135m,39.92120311004761,116.61235495402228
茶园新区    同景国际城(W组团) 距6号线-长生桥897m,29.522141078461516,106.57562736350975
南站    越秀星寰TOD 距7号线-谢村650m,23.13526012014849,113.27342648099675
电视塔    华城万象(一期) 距8号线-电视塔站720m,24.06855845291052,115.63236579009241
徐行    佳兆业城市广场(西区),31.422139270053655,121.28689724986803
积玉桥    金地国际花园 距2号线-积玉桥191m,39.916272100878565,116.48113641394107
涪陵周边    杨二坪小区,29.762731262573823,107.26328184812064
马涧    国家环保产业园,29.315250823871363,119.60749945185006
柯木塱    柯木塱榄元街自建房 距6号线-柯木塱540m,22.929324858552793,113.09608803778634
姑苏城区    天元辰广场 距4号线-平泷路西803m,40.021643628862925,116.39866720710587
南山中心区    康乐大厦 距12号线-南山344m,22.532680557958493,113.9312878549041
八里小区    创客星座 距7号线-八里庄48m,39.93308134233999,116.30808073202144
光明    绿地新都会 距6号线-光明大街站324m,22.767520369746606,113.9494740499476
世博    上南一村 距7号线-耀华路287m,31.17615947986959,121.50254303330453
大坪    奥园康城(A区),29.535715460979116,106.53143944599688
同和    君立M+World 距3号线(北延段)-同和1519m,23.20315286281108,113.33241937161468
北滨路    阳光城天澜道11号 距6号线-五里店730m,40.162528800823154,117.11393838806772
汾湖    咏信水城名邸,31.02675466029499,120.84142260678966
龙潭寺    万科锦园,43.902068047446015,126.59690589398305
巴国城    广田巴国绿云 距2号线-马王场1240m,29.50767688171553,106.47979047241223
西安奥体中心    1668新时代广场 距3号线-国际港务区970m,34.367774489116684,109.03867903665686
农业园区    金鹏两江时光 距9号线-宝圣湖1643m,42.66037494317727,128.11242705884513
曹路    金群苑(南区),31.293115336767084,121.6763592206689
共和路    共和二路小区 距5号线-杨箕539m,31.17659805099963,121.74016397460105
曹路    金海华城云昌佳苑(566...,31.287059097024844,121.67781285864514
聚龙    潭村(白云) 距8号线-石潭1304m,23.535221122972565,113.56803960680156
福永    会展湾水岸广场 距12号线-国展北990m,22.70985034231948,113.78522301970773
龙头寺    仁安里 距环线-渝鲁429m,29.622574572612788,106.55580427616651
亚运城    亚运城天峯,22.95150613649173,113.47914302407185
雁环中路    高新第五季 距6号线-丈八一路1560m,39.81993825014973,116.52991125906357
大学城    北麓国际城(A区),29.59383707333217,106.32088022774963
几江城区    迷你星座,37.85343342071212,113.60656821421946
铜梁城区    宝莲国际都会,30.56670175675298,104.64699275436807
大源    保利星座 距5号线-大源375m,23.298412704879578,113.36869474470662
知识城    康大龙祥汇(别墅) 距14号线(知识城线)-旺村1582m,23.328462988042503,113.53827101983842
市区    泰山北路99号小区,23.60705986477763,113.56738555055995
永川老城    豪禧银山源(一期),29.344518252372627,105.91544288172382
滨江东    珠江广场 距8号线-鹭江1027m,30.214332950144062,120.21847118139375
合川滨江路    创力涪滨九号,30.228803397037307,106.17976381044663
真光    真光新村第二小区 距14号线-真光路391m,31.24874184766583,121.49447103965296
龙头寺    仁安里 距环线-渝鲁429m,29.622574572612788,106.55580427616651
新塘    永荟广场,23.164767955297243,113.62917944758762
江南西    汇源大街13号自建房 距8号线-宝岗大道755m,22.929324858552793,113.09608803778634
光谷软件园    红枫金座,30.49039180541661,114.41590743293078
南山地铁口    向南瑞峰花园 距12号线-南山468m,22.530124962975325,113.93214402988538
大坪    长城小区(渝中) 距2号线-大坪550m,39.031050288740424,106.38417421737817
嘉定新城    怡景花园,31.367355254466144,121.28275112078673
钟家村    远洋国际中心 距4号线-钟家村681m,31.38269667943434,121.22443914572588
大源    佳年华时代晶座(商住楼) 距5号线-民乐308m,30.63379364024264,104.13878314938937
常青花园    常青花园恒大御景 距2号线-金银潭531m,30.647204053661707,114.24891414540635
大华    新沪路960弄小区 距7号线-大华三路618m,31.30325337228092,121.48662146644568
封浜    惠平新苑 距14号线-封浜802m,31.27350332391985,121.30413106141586
桃源村    光前村 距7号线-珠光1045m,31.546182933355848,121.60868366829423
小屯路    兆丰园南区,39.895241673377754,116.25640777366263
万科城    佳兆业城市广场(六期) 距10号线-岗头站523m,31.202877831221763,121.19979404422908
新桥    沁尚茗寓,31.048799187146464,121.32043225218322
新区    天贵路76号自建房 距9号线-花都广场895m,22.929324858552793,113.09608803778634
辅仁路    明发尚都国际 距环线-四公里1202m,22.961612541923017,113.37426837107199
九亭    九城湖滨,34.78506526173781,111.21995408785428
南坪    亚太商谷 距3号线-工贸796m,29.54010813286207,106.56568599609521
奥体中心    升伟铂寓 距环线-谢家湾526m,29.524384170611416,106.52751861193877
高碑店    西店村住房 距八通线-高碑店1421m,39.75861059772701,116.55485962850055
礼嘉    华侨城天际湾B区 距6号线-欢乐谷186m,29.683870898089904,106.50305523765473
化龙桥    翡翠云阶(商住楼) 距9号线-化龙桥750m,40.15647271610179,116.32132606710496
旧宫    康璟家园 距亦庄线-旧宫1820m,39.801321098036595,116.46073984835371
龙洲湾    中交锦悦御蓝湾 距3号线-学堂湾934m,29.407969821233173,106.55525577082231
大坪    华宇渝州新都 距1号线-石油路369m,31.13195709230715,103.82740225283801
曲江四小    三迪枫丹,24.688407846380294,113.61150106464875
城市运动公园    九如御(东区) 距2号线-凤城十路809m,31.418119917886578,121.0016999826604
盘龙    盘龙壹号公寓B座 距2号线-马王场1159m,25.131284877063564,102.76870365420369
大慈寺    银杏地带长租公寓楼 距4号线-太升南路573m,30.6608710482691,104.09106821493808
平江路    顾家花园 距6号线-悬桥巷站598m,30.909375845340875,121.48980560015633
后湖    融创公园壹号(二期) 距8号线-中一路363m,40.012119820371865,116.30256414805412
曹杨    兰花大楼 距11号线-枫桥路767m,31.24917274681249,121.41228947024209
沧浪新城    世茂广场 距3号线-新郭150m,39.94094030173741,116.45603272748143
弹子石    泽京微V,30.861289477524796,108.01699485810546
加州    君悦世纪 距环线-民安大道1073m,30.695807964099412,104.05807039931786
北新泾    虹园六村 距2号线-淞虹路1134m,31.219599876403525,121.36765293894292
龙洲湾    万达华城(3期商住楼) 距3号线-学堂湾576m,29.407708669040417,106.54922661373298
光明    科裕新村 距6号线-长圳站1491m,39.92122994788037,116.54594188021134
电子城    丁家村安置小区 距3号线-吉祥村1364m,34.20944812649563,108.92589803750684
新港街    千间宿舍十段,39.004596753253196,117.72521022488401
颛桥    众秀新家园(公寓住宅) 距15号线-双柏路1308m,31.086045277187836,121.42115466765895
临港新城    保利蔚蓝林语(公寓住宅),39.9229081214029,116.66418799042296
周浦    南华新村(浦东),31.127125842196904,121.55484696145355
空港新城    中航中央城 距9号线-兴科大道1104m,39.93385120026119,116.41355212940621
青村    北唐新苑(西区),30.935256342509188,121.57986557838139
百子湾    石门新居 距7号线-百子湾504m,25.261471512219096,121.57445369226336
攀成钢    天誉(商住楼) 距8号线-东大路273m,40.221665449003616,116.23419070212876
软件园    周宋欣苑,,
航天城    航天名城 距2号线-航天城1118m,40.085649091328975,116.27680802230257
照母山    融创凡尔赛领馆(二期),29.629132980557177,106.51013127998503
万年场    华润玖熹府 距8号线-双桥路101m,30.651422150769974,104.1407031875864
回兴    重庆国际家纺城绣色C区 距9号线-青岗坪574m,29.666539239338363,106.62359669806563
萝岗    萝岗敏捷广场 距7号线-水西799m,23.008504978772407,113.35325053740088
娄葑    新希望锦麟芳华 距7号线-群力站874m,31.293913157639047,120.67299939655445
西安交通大学    兰蒂斯城(东区) 距3号线-延兴门313m,30.77039889704779,103.99321381946406
杨家坪    卓越中寰 距2号线-动物园243m,29.51261085344824,106.52880238034265
大学城    龙湖U城8组团 距1号线-尖顶坡175m,23.37777578062844,116.7235246469334
三林    金光小区 距11号线-三林435m,31.15089708721877,121.50909724996643
南京东路    宁波小区 距10号线-南京东路175m,29.866068124069646,121.63084278185603
攀成钢    天誉5区 距8号线-东大路164m,40.221665449003616,116.23419070212876
龙头寺    长安华都(西区) 距6号线-红土地387m,38.04325613649811,114.54561160958328
新港西    愉景雅苑 距8号线-鹭江564m,26.07036123784741,119.32439002640221
金牛万达    炎华置信花千集(商住楼) 距1号线-人民北路392m,30.691182132622377,104.07569964495117
大沙地    黄埔花园 距7号线-裕丰围677m,23.102798260916153,113.461113942662
化龙桥    万科锦绣滨江 距9号线-化龙桥553m,40.07558875358126,116.31772134675452
张家窝    荣达宏园,39.06357358835963,117.04863130800068
桃花潭    振业泊墅 距3号线-桃花潭358m,34.31557842530646,109.04254462492739
西渡    鸿宝二村(公寓住宅) 距5号线-西渡589m,30.993898654269735,121.43857397929459
杨舍    江帆花苑(北区),31.888075930020822,120.58534526014621
合川宝龙城市广场    宝龙城市广场(商住楼),30.358538726268186,105.93170536759912
菜园坝    枇杷山正街122号小区 距3号线-两路口596m,29.55986460193195,106.55958596270116
龙洲湾    桥达巴南茂宸广场(商住楼... 距3号线-学堂湾1163m,36.89736785103055,114.79139805813494
长白新村    长白三村 距8号线-延吉中路472m,31.295924651174992,121.5522499602242
大学城    金科廊桥水乡三组团(D区...,29.58782880806119,106.28924702804007
奥体中心    金茂未来域 距2号线-袁家岗723m,39.993300002599206,116.40041207572847
斜土路    日晖二村 距12号线-大木桥路199m,31.19994286118682,121.47212901382265
人民南    城市天地广场 距9号线-鹿丹村557m,30.5995413396146,104.06154315858888
大望路    京铁瑞园(C区) 距14号线-九龙山1494m,39.17199033685306,117.21602766520743
北七家    紫锦园,40.11946448446615,116.42733572915132
加州    长安锦绣城 距3号线-嘉州路949m,30.695807964099412,104.05807039931786
南坪    贝蒙松藻中心 距10号线-万寿路458m,28.990898870063365,106.62500748686857
南桥寺    龙湖源著(3期公寓楼) 距环线-体育公园776m,23.37777578062844,116.7235246469334
汽博中心    恒大轨道时代(A区) 距3号线-童家院子1477m,40.012452701736706,116.41380545156004
弹子石    锦江华府 距环线-弹子石1780m,29.58818614828762,106.59668867516754
中梁山    斌鑫中央国际公园(AB区... 距5号线-半山1555m,29.48790484720695,106.45222291360894
嘉禾望岗    东平沙园一巷-四巷自建房 距14号线-白云东平951m,39.963288256909884,116.48121438685934
大浪    恒大时尚慧谷 距6号线-阳台山东站1891m,22.68308324087597,113.98356034234301
欢乐谷    金地自在城(商住楼) 距4号线-仁和路487m,39.86648052556189,116.5057717239078
西丽    西丽工业区 距7号线-茶光704m,22.582346669400657,113.95847983217381
金色港湾    金色港湾(别墅) 距3号线-三角湖593m,36.89342602950772,122.43215700556064
冉家坝    劲力五星城(2期) 距5号线-冉家坝542m,44.581733498196776,129.6429480392823
梅陇    梅陇一村 距1号线-锦江乐园1005m,31.14554186901307,121.4154789937858
翠竹    高标大院 距3号线-翠竹663m,22.57649870151677,114.13642139770342
长桥    长桥七村 距15号线-罗秀路123m,31.13761885249146,121.443180040797
茶园新区    同景国际城香溪迈上 距6号线-茶园1018m,29.522141078461516,106.57562736350975
龙头寺    庆业九寨印象 距环线-渝鲁815m,29.622574572612788,106.55580427616651
汽博中心    重庆汽车博展大厦 距3号线-金童路476m,29.647311983892372,106.57803931380325
百草路    龙城高新天地 距6号线-天宇路1145m,30.705872783492556,104.11391571727886
渤海石油街    建投观海,40.42071941910381,116.47387442236786
光明    龙光玖龙台(商住楼) 距6号线-凤凰城站478m,22.750382015120227,113.9422959601114
东平    东平北路自建房 距14号线-白云东平688m,35.9819569351883,116.42573899110734
浦江    浦锦路1306号小区 距8号线-浦江镇1569m,29.458692851854586,119.89843608269538
彩香    彩香二村 距1号线-桐泾北路355m,31.307464347580733,120.59817764418682
石岩    嘉信云峰公馆 距6号线-上屋站489m,31.739142506967717,106.0200259568652
南坪    升伟一里南滨(商住楼) 距3号线-南坪1079m,29.529313469766954,106.52392413227233
三林    永泰花苑 距11号线-三林1090m,25.872787263195903,118.93843072857337
二郎    西城首座 距环线-彩云湖848m,30.1961796729365,104.40782789539155
黄埭    苏阳路6号小区,30.940609892826757,121.0318774783015
凤凰城    碧桂园凤凰城凤凰名苑,40.46582033258959,124.07432038291391
杨家坪    百康年世纪门 距18号线-杨家坪330m,29.51753373894537,106.52194777032048
太湖新城    绿地中心阿尔法公馆,30.460113290447975,116.31547630162399
鱼洞    华熙LIVE023(商住... 距2号线-鱼洞231m,27.461011717589816,105.15850990840914
龙头寺    仁安龙城国际(二期) 距10号线-龙头寺公园451m,41.59846852304986,120.44356686930357
鱼珠    富颐华庭,23.123506014004263,113.44077603643116
棠下    棠东商业大厦 距21号线-棠东1408m,23.13268611907184,113.38919686118463
长安医院    海璟台北湾(南区) 距8号线-霸城门站916m,31.047318863258397,121.76974903775832
谢家湾    华润二十四城万象里 距环线-谢家湾676m,29.524384170611416,106.52751861193877
蔡甸城区    天下峰景 距4号线-蔡甸广场759m,39.88811735270429,116.40251824282717
中新生态城    第二大街1号A座 距津滨轻轨(9号线)-泰达1032m,40.39722131998869,116.88125920504268
中大    康乐村南新街小区 距8号线-中大961m,39.90774107892632,116.34539742087254
寸滩    绿地保税中心(二期) 距9号线-保税港167m,29.628129915391902,106.59076102660079
石坪桥    保利爱尚里尚景 距18号线-石坪桥1632m,39.9229081214029,116.66418799042296
杨家坪    万科西九(一期商住楼) 距18号线-石坪桥402m,29.51261085344824,106.52880238034265
人和    天一顺和康城(A区) 距5号线-人和1051m,29.625075998616204,106.53323497904962
大坪    英利国际广场 距2号线-大坪227m,29.54541771676141,106.52277448088104
双福新区    建宇新时区 距市郊铁路江跳线-双福站1864m,29.280120853670205,106.28301503356666
张江    万科翡翠公园(六期) 距13号线-学林路447m,40.07558875358126,116.31772134675452
万家湾    光华碧邻 距4号线-中坝971m,30.681756494495055,103.96229117940244
麓山    中德麓府 距6号线-麓山大道688m,30.487884513037685,104.10310964097714
渝北黄泥磅    力帆棠悦68号公馆 距3号线-唐家院子240m,29.605980168489687,106.54539426276757
宜兴埠    恒大御景湾 距5号线-职业大学854m,40.012452701736706,116.41380545156004
白云大道北    云山诗意人家 距2号线-黄边635m,26.38016423522144,119.66581915231903
滨海城区    中交春风海上,29.505046703389628,106.63917996306428
吴家山    东建金海湾,30.626460929569266,114.1498555713962
江宁路    三乐新村 距13号线-汉中路848m,31.24524070883646,121.45802462917995
中央公园    中交中央公园翠澜逸境 距9号线-春华大道1410m,40.08196959964644,116.25386772500262
磁器口    国盛三千城 距1号线-磁器口838m,29.581195081901193,106.462851361949
七星岗    西信洲际花园 距10号线-七星岗657m,29.565453513955845,106.57144143949573
坪地    君胜熙珑山(商住楼),22.75702500830357,114.292308035851
龙洲湾    康利尔风花树 距3号线-学堂湾1934m,29.407708669040417,106.54922661373298
平湖    卓越星源,30.682240998057836,121.02257525525401
蔡屋围    京基一百大厦 距1号线-大剧院260m,22.54487401469998,114.11646500182255
白沙洲    美好长江首玺K2地块,30.47085892047285,114.25907703496293
地毯路    胜林南苑,37.724961404395366,118.8635515010304
杨家坪    正升百老汇 距18号线-杨家坪20m,29.51261085344824,106.52880238034265
塘桥    文兰小区 距4号线-蓝村路186m,23.145191169971373,111.78620220968189
石桥铺    龙湖新壹城(商住楼) 距环线-陈家坪622m,30.10061484327387,106.62407155466754
方庄    德福缘 距亦庄线-宋家庄1530m,39.86759691402645,116.43403484249198
新客站    芷江西路285弄小区 距1号线-中山北路204m,22.99482601801813,113.27582396857154
西永    隆鑫花漾汇A区,29.602869990449168,106.38381272701083
体育中心    时代奥城商住楼 距6号线-水上公园东路475m,39.073538123298995,117.18448887739652
高行    新高苑春园 距12号线-金京路1830m,31.295697854072316,121.62008909403221
大学城    富力城新壹站(商住楼) 距1号线-大学城974m,39.90166304624212,116.46296701720459
北滨路    龙湖春森彼岸(5期) 距9号线-鲤鱼池181m,29.577655028779592,106.5556740218676
南京西路    虬江路1258弄小区 距8号线-中兴路402m,31.315185813438184,121.51966482615526
木塔寺公园    香榭御澄 距6号线-木塔寺1207m,33.053470985247024,120.01335919785893
永泰    永泰集贤路133号自建房 距3号线(北延段)-白云大道北1364m,23.23076370114457,113.31030910861324
动物园    新山复郡二期B区,29.47796191168819,106.48278712976199
颛桥    龙盛国际商业广场 距5号线-银都路1522m,31.277353158000746,121.45320441164395
荔城中区    碧桂园豪园水岸公寓,23.17368905042504,113.80090671526236
东高地    南街福苑(聚德路5号院) 距8号线南段-火箭万源1872m,39.888285170653376,116.30580559365632
盘龙    中粮鸿云 距2号线-大堰村1388m,31.405993244391343,121.46367200642952
礼嘉    龙湖悠山香庭 距6号线-金山寺352m,23.37777578062844,116.7235246469334
跃进村    旭辉东原长河原 距2号线-大渡口1140m,29.493265140756613,106.49978387848013
三峡广场    百年世家 距环线-重庆大学931m,29.5632140125847,106.46887597063906
坑口    东漖南小区 距1号线-坑口510m,23.084139139310192,113.23466603554282
城厢    南洋丽都,25.424343792481636,119.00153633130627
石坪桥    财信铂雲府(北区) 距2号线-大堰村1536m,31.233264128116122,121.51339905539261
大学城    协信城天骄名城(三四期),29.52789370878533,106.57784842388244
金泘沱    夏殿蓉府 距4号线-金滹沱523m,34.18144119621472,108.97784794345436
松江老城    松江环城新村,31.009461423251665,121.26207069065822
西门口    人民中路小区 距1号线-西门口547m,23.334200104082456,113.19890000167486
南桥寺    金科10年城西区 距环线-体育公园1286m,29.59588792883395,106.48896387844657
双街镇    柴楼庄园,39.27641116468281,117.1115503327
皇岗    天泽花园 距4号线-福田口岸318m,31.18679405836559,121.37377866387658
悦来    嘉悦江庭 距6号线-高义口842m,30.624779628380818,106.61233357622976
回龙观    流星花园三区 距8号线-平西府1015m,40.09708678440699,116.34634890606871
太华北路    金科天籁城 距8号线-余家寨站550m,31.20967444185465,121.32438856931026
回龙观    尚城 距昌平线-生命科学园1676m,40.11061283471207,116.30066018952573
双山    中交万都汇 距2号线-平安1507m,41.14430575459048,123.02599857141405
航天城    电影公司小区 距2号线-航天城276m,40.085649091328975,116.27680802230257
李家沱    恒大城(二期) 距3号线-九公里455m,29.466024654394168,106.56297320328652
精武    国兴佳园,20.01739628607523,110.37062840276913
温江城区    洲际健康城,31.25104095682508,121.46016062002155
科技园    松坪村(三期西区) 距7号线-珠光1894m,26.56801962659743,102.99678692650323
东平    永兴河塘中街小区 距14号线-夏良205m,35.94190801501926,116.47759421565412
南桥    卓越世纪中心(西区商住楼... 距5号线-奉贤新城911m,34.720014009244096,118.00685211476456
杨村街    惠昊商住,39.415587284914054,117.10854226686929
天府广场    丰德成达中心 距4号线-太升南路739m,30.663502509751666,104.0724253213673
南坪    光宇尚滨国际 距3号线-工贸673m,29.540022348927458,106.57333542683234
西长安街    子午美居,34.06275336108727,108.91498353573006
弹子石    聚丰江山汇 距环线-涂山620m,29.58818614828762,106.59668867516754
大兴周边    恒大未来城(公寓住宅) 距4号线大兴线-义和庄485m,39.7181866228387,116.32582002007972
镜湖大道    祈福生活无限 距9号线-莲塘1474m,22.97853548274284,113.3382957269368
天星桥    融汇国际温泉城上筑 距1号线-杨公桥1146m,39.68334602348123,116.32733860554434
盘龙    中粮鸿云 距2号线-大堰村1388m,31.405993244391343,121.46367200642952
学府大道    中梁百悦汇 距3号线-六公里680m,30.544155865855814,104.88464693296848
朝外大街    中骏世界城 距6号线-东大桥792m,39.91773056473404,116.13213026059591
龙华中心区    山咀头村 距4号线-龙华827m,31.802282076350952,118.8201612787958
鱼洞    华熙LIVE023(商住... 距2号线-鱼洞231m,27.461011717589816,105.15850990840914
蔡家    旭辉紫都 距6号线-蔡家835m,43.41622085550668,124.67572056081994
"南门    西二路7号,8号小区 距5号线-南门站482m",39.70249510068922,118.19780902317505
双福新区    恒大金碧天下观天下,25.03734725342717,102.69895930426259
龙头寺    兆邦嘉璟 距10号线-龙头寺公园375m,29.622574572612788,106.55580427616651
学府大道    中梁百悦汇 距3号线-六公里680m,30.544155865855814,104.88464693296848
冉家坝    两江春城和风苑 距环线-体育公园597m,23.032223977295075,114.06896036070682
冉家坝    龙湖水晶郦城励苑 距环线-动步公园876m,29.611236327285738,106.50691408863266
蔡甸城区    天下峰景 距4号线-蔡甸广场759m,39.88811735270429,116.40251824282717
金融城    誉峰遇见 距5号线-交子大道44m,39.94357090841068,116.35271941925382
石桥铺    龙湖新壹城(商住楼) 距环线-陈家坪622m,30.10061484327387,106.62407155466754
唯亭    青苑新村二区 距3号线-唯亭185m,31.36383790554957,120.80001000413527
富力城    天赐颐府 距4号线-航天大道645m,39.90166304624212,116.46296701720459
蔡家    旭辉紫都 距6号线-蔡家835m,43.41622085550668,124.67572056081994
两路口    上海东方花苑 距10号线-曾家岩679m,19.10110473128863,108.65856652679174
天河智慧城    凌塘村新庄小区 距21号线-天河智慧城1295m,23.17738368154778,113.41742449487644
石油大学    橄榄郡(新都) 距3号线-石油大学345m,40.01310816723131,116.35633141587888
蜀都万达    万达MINISOHO,39.911723089086166,116.64964675981075
石坪桥    鲁能九龙花园东郡(商住楼... 距2号线-大堰村1458m,29.507780138577978,106.49409392155125
辛家庙    广安社区湖畔嘉园 距3号线-广泰门653m,30.461746110678995,106.63955268233484
新牌坊    富渝大厦 距3号线-嘉州路773m,23.21113050507408,113.28615322430515
石岩    宏发悦云花园,31.36950999861345,121.29994693401149
红光    嘉通云玺 距有轨电车蓉2号线-技师学院268m,31.85407764853052,117.35351709639271
姑苏城区    CCB建融家园(平江) 距2号线-平泷路东871m,39.72673487368468,116.43544401434548
大雁塔    曲江大观园小区 距3号线-大雁塔868m,24.688407846380294,113.61150106464875
龙华中心区    壹成中心第五区 距4号线-龙华1787m,22.657410791068465,114.0288450908832
回兴    国际家纺城(A区) 距9号线-青岗坪610m,29.67334548682683,106.6199565844793
东平    东平马市岭东街自建房 距14号线-白云东平1002m,35.9819569351883,116.42573899110734
龙头寺    金科公园王府(渝北) 距环线-渝鲁776m,29.622574572612788,106.55580427616651
华府    华庭悦璟(商住楼) 距5号线-警官学院570m,30.35424233506362,114.33661768861762
中新镇    凤秀家园 距21号线-凤岗1276m,23.287984216493363,113.66949998022021
龙洞    保利林海山庄 距6号线-植物园1169m,23.19578661170944,113.36559909408972
中山公园    江苏北路105弄小区 距13号线-隆德路596m,22.52939120744837,113.37647559753982
青浦新城    青浦环城新村,31.155539842167276,121.1306360182713
松岗    满京华云著(一期) 距6号线-松岗站1527m,22.788804602104673,113.8398072963758
光谷东    龙湖新壹城 距11号线-光谷五路510m,30.541888225692546,114.6110296303808
大王庄    新义信里 距津滨轻轨(9号线)-大王庄632m,39.13655061139112,117.23004814811551
航空港    蓝光空港T5 距8号线-顺风1049m,31.191363832356338,121.31233402801077
共和路    共和西苑 距5号线-杨箕390m,31.17659805099963,121.74016397460105
曹路    金海华城华彩新苑 距9号线-曹路195m,31.287059097024844,121.67781285864514
良乡    瑞雪春堂 距房山线-良乡大学城西1310m,39.731416174132505,116.17867964364801
下朱庄街    花样年花郡,22.57040619298798,113.88866191101147
大芬    倚龙华庭 距3号线-大芬176m,22.617256723329216,114.14450381169623
民治    水尾二区 距5号线-民治1159m,22.630945901154522,114.04243681256688
大坪    V8区 距1号线-石油路473m,31.13195709230715,103.82740225283801
小寨    阳明国际 距3号线-小寨331m,44.60020983055388,129.6448988893583
茶园新区    同景国际城P组团 距6号线-邱家湾362m,29.522141078461516,106.57562736350975
学府大道    万科金域学府(四期商住楼... 距3号线-六公里1541m,40.07558875358126,116.31772134675452
席王    辰宇世纪城 距1号线-半坡874m,34.29424628578589,109.06989443448418
石桥铺    富邦金玖 距5号线-红岩村953m,29.524011517043387,106.47698039311688
盘龙    盘龙金茂悦(商住楼) 距2号线-大堰村1409m,25.069318033622885,102.73593885904357
南滨路    和黄御峰8坊 距环线-海棠溪516m,29.54003947429758,106.59099494535552
莘闵    象屿上海年华,31.079056538094058,121.34800421269263
龙洞    景翠华庭 距6号线-长湴1543m,35.272869414088866,113.1406250512824
西安交通大学    兰蒂斯城(三期) 距3号线-延兴门277m,30.77039889704779,103.99321381946406
空港新城    恒大城市之光(金缘路8号... 距9号线-兴科大道796m,40.111317977255055,116.55039765520193
郭巷    鑫苑湖岸名家(北区) 距3号线-墅浦路北544m,39.77431087520552,116.12178357773199
双福新区    建宇新时区 距市郊铁路江跳线-双福站1864m,29.280120853670205,106.28301503356666
渝北黄泥磅    紫荆商业广场 距6号线-黄泥塝326m,29.5942801295232,106.54758675702504
郭巷    国香雅苑 距2号线-尹中路390m,38.90757465813515,115.51039594933548
寸滩    吉安园茅溪小区 距9号线-保税港158m,27.20870395634255,115.13472798350281
鱼珠    富颐华庭,23.123506014004263,113.44077603643116
永泰    永泰集贤路133号自建房 距3号线(北延段)-白云大道北1364m,23.23076370114457,113.31030910861324
静海镇    静壹城,38.95960422870968,116.96735002037188
斜土路    肇嘉浜路107弄小区 距9号线-嘉善路488m,31.315185813438184,121.51966482615526
石厦    宏轩大厦 距3号线-石厦726m,22.527313769938132,114.0618911454984
茄子溪    龙桥花苑四组团 距18号线-茄子溪1034m,29.430844515666873,106.50211453212499
广州雅居乐    莱茵河花园公寓 距7号线-板桥362m,23.019495500378824,113.36383733732413
嘉定城区    李园二村(东区) 距11号线-嘉定北1827m,36.797492156888744,119.94326747315408
华泾    紫阳花苑(501弄) 距15号线-景洪路1744m,31.245259001357866,121.09058380948123
龙洲湾    和泓文华府(南区),29.349473460678528,106.53893248174478
李家沱    蔚蓝时光 距3号线-八公里421m,29.466024654394168,106.56297320328652
龙洲湾    和泓文华府(南区),29.349473460678528,106.53893248174478
光华大道    洲际亚洲湾B区 距4号线-涌泉988m,31.25104095682508,121.46016062002155
朱家角    万达茂(公寓住宅) 距17号线-淀山湖大道788m,31.135412624107357,121.07763761013251
通化门    西安工业大学东家属院 距1号线-通化门908m,34.27565616986087,109.00442287467827
运东    恒达星湖湾,31.158706113647582,120.66816561460526
凤天路    巨东青春华庭 距直快列车-重庆图书馆446m,22.578011670476446,113.89394188130572
空港    海志观月山水 距3号线-观月路949m,31.338571988928095,121.32330880608728
马安山    万科星城华府,39.71446720644374,116.06967790560901
南坪    升伟一里南滨 距3号线-南坪1141m,29.529313469766954,106.52392413227233
笋岗    招商中环 距7号线-红岭北375m,22.568973402325238,114.11249044909496
东高地    南街福苑(隆华路39号院... 距8号线南段-火箭万源1320m,39.888285170653376,116.30580559365632
永定路    玉海园五里 距6号线-田村1505m,39.92690030896351,116.26509744218285
嘉禾望岗    豪泉商务大厦 距2号线-嘉禾望岗1025m,25.591099109783492,112.37046909623365
市图书馆    赛高国际 距8号线-市图书馆站201m,34.32620402352119,108.95513303100687
天星桥    蓝溪谷地 距9号线-天梨路681m,30.78713037144961,103.53870698397452
吴泾    万科青藤公园(公寓住宅),31.045213002710923,121.46144798164791
世博    上南一村 距7号线-耀华路287m,31.17615947986959,121.50254303330453
等驾坡    曲江奥园城市天地 距5号线-黄渠头194m,34.23615072558924,109.02463124526128
东长安街    康桥悦蓉园 距4号线-飞天路956m,31.161039107753847,121.60143847503406
百草路    晨风社区 距有轨电车蓉2号线-晨风398m,30.74390359750272,103.9817518903095
十陵    景粼玖序二期 距4号线-来龙1130m,30.66164587845231,104.17197131594718
上杭路    程林里 距4号线-泰昌路676m,31.50183259032299,120.39439892568988
蔡家    旭辉紫都 距6号线-蔡家835m,43.41622085550668,124.67572056081994
龙头寺    鲁能星城十二街区 距环线-渝鲁839m,29.622574572612788,106.55580427616651
华府    锦云天府 距5号线-二江寺1218m,40.204896091485416,116.25331239253634
永城路    源利国际城小区 距10号线-团结村站408m,34.34303339401472,108.95456188836363
石桥铺    龙湖新壹城(商住楼) 距环线-陈家坪622m,30.10061484327387,106.62407155466754
西太路    创汇社区E区,29.560050979955463,106.58428999303126
璧山老城区    融创云湖十里C区(商住楼... 距重庆云巴线-1号地铁站314m,29.62008964607432,106.23642792169854
公明    元山新村,22.785134526043514,113.90322883315646
潼南城区    卓然铂金公馆(B区),31.239265655039997,121.35589205371464
辛庄    首创悦山郡 距1号线-洪泥河东1883m,39.04127747326588,117.35310540297748
南稍门    大话南门 距5号线-南稍门400m,34.24700347788212,108.95316214871798
南坪    升伟一里南滨(商住楼) 距3号线-南坪1079m,29.529313469766954,106.52392413227233
大学城    龙湖U城1组团 距1号线-尖顶坡287m,23.37777578062844,116.7235246469334
土门    融创高新臻园 距5号线-汉城南路656m,40.480828557140455,117.1733196161771
杨舍    华兴路2号小区,31.44556311578653,119.69677199206338
化龙桥    翡翠云阶(商住楼) 距9号线-化龙桥750m,40.15647271610179,116.32132606710496
东坝    首开常青藤(C区) 距3号线-东坝1415m,31.18790117030116,106.09855887878619
吴家山    海峡创业城(1期) 距1号线-东吴大道1342m,30.630076314755893,114.14315223601963
新牌坊    碧桂园嘉誉 距环线-民安大道903m,23.21113050507408,113.28615322430515
余家头    大华铂金瑞府 距5号线-科普公园1208m,23.36437438923025,116.69416352559132
长生桥    优雅长乐居,22.650943932508046,114.21592835226262
王家墩CBD    泛海国际居住区樱海园 距3号线-云飞路276m,30.878851874560002,121.5565806910878
铁机路    保利云上 距4号线-园林路46m,39.9229081214029,116.66418799042296
南湖    蓝润天府MIC(商住楼) 距5号线-南湖立交475m,30.76624423367485,120.76193227085612
寸滩    绿地保税中心(二期) 距9号线-保税港167m,29.628129915391902,106.59076102660079
国贸    光华路小区 距10号线-金台夕照924m,39.91645575947582,116.46703499370652
浦江    浦江宝邸(南区) 距浦江线-三鲁公路1982m,29.443914017344806,120.03108185052704
开发西区    青年路商业街小区 距5号线-夏港1116m,39.701530199774076,115.99128107697278
大坪    和泓渝中界 距2号线-大坪565m,29.548225537006317,106.53446296268137
西长安街    紫宸公寓 距2号线-凤栖原389m,39.77133903436151,116.55701744816606
大学城    中渝春华秋实(三期7栋),29.57621247382465,106.49834344559534
闸北公园    嘉利明珠城 距1号线-延长路851m,31.276753645217447,121.46636925855377
二郎    金科云湖天都,29.51209435722599,106.49148569150388
九宫庙    秋实春华 距2号线-新山村396m,29.47796191168819,106.48278712976199
盐田    悦千山雅园 距8号线-盐田路1439m,22.59902505869411,114.25321593600289
大竹林    龙湖九里峰景 距6号线-九曲河207m,29.629213429399794,106.4833865690286
华明镇    大唐印象唐槿苑,29.699395790614577,120.17405696392287
中央公园    香港置地衿湖翠林云峰(三... 距5号线-鲁家沟814m,40.08196959964644,116.25386772500262
大运    爱联前进村 距16号线-大运中心981m,22.703687381044624,114.22562969244497
新桥    万科金色悦城(5期商住楼... 距5号线-凤西路620m,40.07558875358126,116.31772134675452
工业大道北    保利丰花园 距8号线-同福西340m,31.639457726426173,120.80191836436066
空港新城    天晋 距10号线-鹿山290m,40.111317977255055,116.55039765520193
锦绣江南    丰润花园 距4号线-龙华1861m,39.83238423857949,118.113861295301
加州    龙湖佰乐街(商住楼) 距3号线-红旗河沟429m,23.444279274608878,116.76134519533254
常州道    倚营里 距2号线-翠阜新村146m,39.147996257283424,117.26130765274338
龙洲湾    龙洲花园 距3号线-学堂湾1348m,29.407708669040417,106.54922661373298
淘金    淘金北小区 距5号线-淘金939m,39.92233810593866,116.37030231232282
马驹桥    合创产业中心,39.899691806581615,116.48582350260048
金沙洲    星港城,31.27323704332749,121.50401885942686
西永    龙湖拉特芳斯(一街区商住... 距1号线-微电园335m,28.456018340653763,110.40769895589824
大坪    协信阿卡迪亚江山公馆 距5号线-红岩村734m,29.544423001321192,106.52276450968988
嘉定城区    塔城东路365弄小区,31.292541768621557,121.47747024855443
中山路    富力东堤湾 距5号线-杨箕189m,39.90266393531041,116.4670233157349
寸滩    绿地保税中心(二期) 距9号线-保税港167m,29.628129915391902,106.59076102660079
世博    昌五小区 距6号线-东明路1093m,31.17615947986959,121.50254303330453
华漕    上海华漕经济城,31.222817639875874,121.28837595056801
广州雅居乐    广州雅居乐花园浅山小筑,23.010730698229786,113.3754513495977
空港新城    天晋 距10号线-鹿山290m,40.111317977255055,116.55039765520193
甘泉宜川    宜洛馨苑(宜川六村) 距3号线-中潭路1017m,36.0502548602678,110.16898497001651
汽博中心    恒大轨道时代(A区) 距3号线-童家院子1477m,40.012452701736706,116.41380545156004
辛家庙    安诚御花苑(B区) 距8号线-北辰东路站793m,34.317746990017284,109.00408295587327
鸿恩寺    财信北岸铂寓 距9号线-李家坪1166m,29.57578276589539,106.51401824792542
大溪沟    溪江悦 距2号线-大溪沟546m,30.72317221184354,103.48097657190083
龙洲湾    旭辉城(三期) 距3号线-学堂湾870m,29.407708669040417,106.54922661373298
雁环中路    融创天朗珑府(商住楼) 距西安高新云巴线-紫薇田园都市1954m,39.95144483203103,116.44412568794667
金桥    莱阳新家园 距12号线-东陆路956m,31.282694747292744,121.58899954880684
双福新区    建工翰林华庭,30.50345205733739,114.41959991772953
古美罗阳    古美八村 距1号线-莲花路1157m,31.151729652457817,121.40079834615844
顺义周边    板桥新苑,40.2177873972299,116.52267298275582
越溪    龙翔御庭 距4号线-文溪路856m,22.69712287111232,114.06370006330323
上海南站    汇成苑五村 距15号线-华东理工大学980m,31.159438874262317,121.43586513902925
谢家湾    华润二十四城嘉悦府 距环线-谢家湾1238m,29.524384170611416,106.52751861193877
运东    三千邑,29.799605489292066,119.69290638716629
龙洲湾    旭辉城(三期) 距3号线-学堂湾870m,29.407708669040417,106.54922661373298
寸滩    绿地保税中心(二期) 距9号线-保税港167m,29.628129915391902,106.59076102660079
鱼珠    富颐华庭,23.123506014004263,113.44077603643116
川师    大观苑二期 距7号线-狮子山1407m,37.79043560782385,112.59915496615235
鸿恩寺    财信北岸铂寓 距9号线-李家坪1166m,29.57578276589539,106.51401824792542
赵巷    映虹桥,,
古美罗阳    古美八村 距1号线-莲花路1157m,31.151729652457817,121.40079834615844
新桥    万科金色悦城(5期商住楼... 距5号线-凤西路620m,40.07558875358126,116.31772134675452
新北    美洲花园波特兰小镇 距8号线-庆安163m,26.424287356766378,109.11193008870899
礼嘉    龙湖悠山香庭 距6号线-金山寺352m,23.37777578062844,116.7235246469334
大坪    渝中名郡 距2号线-大坪948m,29.546657896180072,106.52476117334625
五大花园    双景秀庭 距7号线-龙爪堰622m,45.252994440815336,130.1575312918413
永和    合景花漫里,25.01050445234519,121.52451442921081
南洲    珠江御景湾,23.056396810923676,113.34688505472873
曲江四小    三迪枫丹,24.688407846380294,113.61150106464875
弹子石    天誉智慧城(商住楼) 距环线-弹子石1154m,29.592204744087578,106.60467002979051
瑞景街    燕宇艺术家园 距1号线-瑞景新苑531m,39.20647167353275,117.12802417778639
寒窑路    曲江诸子阶 距8号线-新开门站274m,22.803631411796413,114.05840733707075
鱼洞    帝豪富达城 距3号线-金竹1011m,29.374215791715685,106.52999550972062
板桥    塞纳河广场 距7号线-板桥102m,30.599978466852445,103.54519625314803
淮海中路    巨鹿路374弄小区 距10号线-陕西南路657m,31.315185813438184,121.51966482615526
大寨路    宏府麒麟山 距5号线-西窑头1524m,29.790911071106986,119.69992592608004
中央公园    龙湖天际 距5号线-中央公园西189m,23.37777578062844,116.7235246469334
周浦    昱龙家园(北区),31.129747794327113,121.60394690334013
南桥    卓越世纪中心(西区商住楼... 距5号线-奉贤新城911m,34.720014009244096,118.00685211476456
地毯路    胜林南苑,37.724961404395366,118.8635515010304
龙华    三江小区 距12号线-漕宝路995m,22.702687338231396,114.05115334041898
苏苑    嘉宝广场 距3号线-迎春路308m,23.30423634928883,113.25468908569252
杨家坪    正升百老汇 距18号线-杨家坪20m,29.51261085344824,106.52880238034265
解放碑    中驰领寓 距6号线-小什字326m,29.562808988516316,106.5907980367878
龙洲湾    旭辉城(商住楼) 距3号线-学堂湾529m,29.407708669040417,106.54922661373298
雁环中路    金地未来域,34.17986570528673,108.89846477536818
木耳    首钢铂鹭风华 距3号线-莲花1123m,29.80415224044979,106.65714688173286
大白杨    珑寓 距8号线-光化门站106m,46.7340528185818,82.9034788601138
车坊    淞泽家园八区 距8号线-车坊站1559m,40.56148170252231,116.11465758961297
公明    元山新村,22.785134526043514,113.90322883315646
梅江南    花样年喜年广场(商住楼) 距6号线-解放南路263m,39.07073971748116,117.22882052380558
向阳街    吉宁里 距津滨轻轨(9号线)-塘沽站645m,39.038937162264055,117.66943398661671
空港新城    中航中央城 距9号线-兴科大道1104m,39.93385120026119,116.41355212940621
石油大学    和信香榭澜郡(商住楼) 距3号线-成都医学院588m,40.01310816723131,116.35633141587888
大学城    中渝春华秋实(二期),29.57621247382465,106.49834344559534
恒大绿洲    中国健康谷健康新天地 距4号线-集贤87m,40.006759438318355,116.39001365046715
咸水沽    金朗园 距6号线二期-咸水沽西1998m,39.00078387616501,117.38051324307023
刘家坪    三江花园 距6号线-刘家坪1431m,32.796542909440284,104.82829308425828
南坪    万达广场铭邸 距3号线-南坪277m,29.536840907086287,106.57629327738407
高东    千秋嘉苑,31.330053181280782,121.62908885761449
北塘街    海阔苑,39.110114454366844,117.70745863004022
璧山老城区    交职校还建房 距1号线-璧山1551m,29.598346607316348,106.23347456267436
爱联    中粮祥云(商住楼) 距3号线-爱联463m,22.699770351688535,114.24013795524019
双港    富力桃园天域园 距6号线二期-双港440m,47.286267328178155,130.29142965692074
甪直    路劲甪澄时光花园,31.310737088152873,120.76977016609177
观音桥    同创国际 距6号线-红土地797m,30.53507596368031,103.98013583869705
雁环中路    金地未来域,34.17986570528673,108.89846477536818
渝北黄泥磅    上品拾陆 距6号线-红土地879m,29.589544830370926,106.5544474755247
大石    大石植村西北二路自建房 距3号线-大石976m,40.348425317192,116.54792102691093
天星桥    融汇国际温泉城(A区) 距9号线-天梨路739m,39.68334602348123,116.32733860554434
西藏北路    海联公寓 距8号线-曲阜路213m,40.05417293409334,116.3393983570158
潞城    紫运南里二区 距6号线-北运河东354m,36.339691267612324,113.23557845894248
双港    富力桃园天域园 距6号线二期-双港440m,47.286267328178155,130.29142965692074
龙头寺    首创十方界峰度 距环线-民安大道1204m,29.622574572612788,106.55580427616651
宋庄    小堡北街45号院,39.95725266447499,116.72994260629508
西渡    鸿宝二村(公寓住宅) 距5号线-西渡589m,30.993898654269735,121.43857397929459
双福新区    建宇新时区 距市郊铁路江跳线-双福站1864m,29.280120853670205,106.28301503356666
高新管委会    天琴湾 距6号线-郭杜西470m,29.518986490434038,106.34243722438765
新牌坊    碧桂园嘉誉 距环线-民安大道903m,23.21113050507408,113.28615322430515
吴泾    永德小区,24.024871282776907,99.26507564260625
张家窝    荣达宏园,39.06357358835963,117.04863130800068
农业园区    富力湾C7星寓 距9号线-青岗坪780m,31.5997974187015,121.81484630995355
内双楠    太平盛世A区 距7号线-武侯大道1046m,30.648245954212992,104.02863517351965
生物医药基地    熙悦春天 距4号线大兴线-天宫院516m,39.68804597822738,116.30814163713502
白沙洲    龙湖三千城 距5号线-光霞600m,26.861554778090476,112.64437942410959
龙华    旭日小区,22.648410652328558,114.05501470665233
良乡    良乡东关村住房 距房山线-良乡南关1498m,39.738589065457184,116.157242660619
丰庆公园    嘉天Smart 距5号线-金光门376m,43.6648786567875,124.95507255407415
春申    森安苑,32.150936764538166,115.052635810611
光明    宏发万悦山(二期) 距6号线-凤凰城站999m,22.761035858521254,113.94540212090277
北新泾    新泾三村 距2号线-北新泾442m,31.220886562725912,121.37672735171307
流塘    流塘置地大厦 距12号线-流塘853m,31.82809095582071,118.8525726805791
光明    光明大第 距6号线-凤凰城站1897m,22.74580065989628,113.95082546075636
南门    养蚕里新村 距5号线-南园北路站527m,31.29676988980811,120.63836540727834
芦台镇    福康花园,23.30823291803246,113.83089826165298
华侨城    荔园新村(华侨城) 距2号线-世界之窗879m,31.043929708780702,121.8471905184847
曹路    金海华城悦虹雅苑,31.287059097024844,121.67781285864514
大学城    富力城瀚湖 距1号线-大学城977m,39.90166304624212,116.46296701720459
新桥    万科金色悦城(5期商住楼... 距5号线-凤西路620m,40.07558875358126,116.31772134675452
创意谷    黄渠头小区 距8号线-缪家寨站605m,23.25194019676228,113.35760812759779
汽博中心    万科金域蓝湾(四期),29.648292570114712,106.57927394489575
杨家坪    万科西九(一期商住楼) 距18号线-石坪桥402m,29.51261085344824,106.52880238034265
娄东    万鸿丽舍,31.469355953781456,121.12513551397261
临江门    都市丽景 距2号线-临江门695m,39.936561055601715,116.26034801112105
铜元局    云满庭(C区) 距3号线-铜元局1059m,29.538624971696866,106.56052343433106
吉祥诚信商业街    香山红叶 距3号线-吉祥村1067m,38.90845878863059,112.44411220723042
凤天路    万科金色悦城(5期) 距5号线-凤西路410m,40.07558875358126,116.31772134675452
民治    创业花园 距4号线-红山763m,22.62258035438406,114.03194433472214
太白南路    丈八新村 距6号线-丈八六路488m,34.215393116039486,108.87546842380439
吴门桥    东大街241号小区 距5号线-南门站545m,28.174878634729424,113.03531596327593
解放碑    巴渝世家 距10号线-七星岗583m,29.56380705533743,106.57495902421054
金沙洲    星港城,31.27323704332749,121.50401885942686
大源    保利星座 距5号线-大源375m,23.298412704879578,113.36869474470662
新天地    淡水路266弄小区 距10号线-新天地237m,39.92120311004761,116.61235495402228
万达    中港广场 距8号线-东光150m,39.911723089086166,116.64964675981075
一品天下    时代天境雅苑 距7号线-茶店子299m,30.695308390675144,104.02726615592246
吴家山    湖北现代五金机电城,30.624547331317405,114.11198184329835
七里庙    红光鹏程苑(1-6栋) 距4号线-七里庙322m,31.85407764853052,117.35351709639271
席王    辰宇世纪城 距1号线-半坡874m,34.29424628578589,109.06989443448418
福利社    名敦道南滨国际公寓 距10号线-后堡1089m,27.725326129613364,120.63828705809905
南坪    天龙城市花园 距3号线-工贸569m,29.53692928620072,106.57473453766367
铁东路街    北宁湾宁宇家园(商住楼) 距3号线-铁东路326m,39.189793843152366,117.21840727650337
娄葑    怡葑庭 距7号线-娄葑站185m,31.295324177643863,120.66954379491867
曹路    盛世春晓苑 距9号线-民雷路1128m,31.282243557146025,121.67350710067471
南坪    升伟一里南滨(商住楼) 距3号线-南坪1079m,29.529313469766954,106.52392413227233
七星岗    罗宾森广场尚城华府 距1号线-七星岗164m,29.56109902588673,106.56962084371926
茶园新区    金科世界城高层区 距6号线-邱家湾698m,29.522141078461516,106.57562736350975
兴华大街    万科天地(三期) 距4号线大兴线-义和庄435m,40.07558875358126,116.31772134675452
大丰    保利大都汇熙汇(商住楼) 距5号线-皇花园1652m,33.20475984971028,120.50743881648788
大柏树    巴林小区 距8号线-曲阳路1551m,31.295150144510867,121.48970130688663
寸滩    中国铁建西派城1期 距直快列车-头塘794m,29.611800746368225,106.5786800751233
大学城    富力院士廷(商住楼) 距1号线-陈家桥646m,23.157829113169957,113.3437319125592
天河智慧城    万科云城米酷 距21号线-天河智慧城720m,23.17738368154778,113.41742449487644
菜园坝    铂金时代 距1号线-鹅岭163m,29.543381614859783,106.53695315538475
精武    保利和光尘樾 距3号线-高新区1620m,39.049892969399174,117.12113174909997
万达    瑞升望江橡树林三期 距8号线-东光433m,39.911723089086166,116.64964675981075
清湖    三一云都公寓,40.21787272311152,116.09280244536907
鹿角    融创欧麓花园城博琅郡(三...,29.137521288558787,108.29567445682379
新牌坊    云天千年禧 距3号线-嘉州路881m,23.21113050507408,113.28615322430515
笋岗    招商中环 距7号线-红岭北375m,22.568973402325238,114.11249044909496
龙华    宛南四村 距7号线-龙华中路920m,22.702687338231396,114.05115334041898
大营门    凯旋门大厦 距1号线-小白楼118m,39.117272598523805,117.22670681094061
大坪    恒大名都(商住楼) 距1号线-石油路861m,31.13195709230715,103.82740225283801
凤栖原    疾控中心家属院(韦曲) 距2号线-凤栖原316m,35.77125772240279,109.43874397688364
龙头寺    兆邦嘉璟 距10号线-龙头寺公园375m,29.622574572612788,106.55580427616651
鱼洞    帝豪南城国际 距3号线-金竹282m,27.461011717589816,105.15850990840914
白云万达    云山雅苑 距2号线-飞翔公园1518m,23.17445036068344,113.27003986922524
大寨路    远洋落子栖 距5号线-汉城南路781m,24.3224924117711,109.6002593841156
莘庄北广场    东湖花园 距12号线-七莘路1590m,40.32835185699626,116.63298831294206
软件园    周宋欣苑,,
海棠溪    和黄御峰(一期别墅) 距环线-海棠溪694m,39.640592899083536,116.58551681928397
松江大学城    三迪曼哈顿,31.06321687762026,121.25327196784909
高攀路    保利天悦中心(商住楼) 距8号线-东湖公园476m,39.9229081214029,116.66418799042296
丽泽桥    丽泽景园 距14号线-西局513m,39.87268408246444,116.34082001531588
新牌坊    碧桂园嘉誉 距环线-民安大道903m,23.21113050507408,113.28615322430515
市桥    黄编村 距3号线-市桥1829m,22.957962244317006,113.3812226031752
上海植物园    华滨家园,31.146278672941555,121.45649634201581
甘泉宜川    宜洛馨苑(宜川六村) 距3号线-中潭路1017m,36.0502548602678,110.16898497001651
藏龙岛    当代卡梅尔小镇 距2号线-佛祖岭1837m,30.435485257426816,114.43691484626491
金融城    仁和春天国际花园 距30号线-市一医院371m,39.94357090841068,116.35271941925382
科技西路西段    龙城铭园(二期) 距3号线-丈八北路1417m,30.705872783492556,104.11391571727886
龙华中心区    山咀头村 距4号线-龙华827m,31.802282076350952,118.8201612787958
空港新城    中航中央城 距9号线-兴科大道1104m,39.93385120026119,116.41355212940621
百子湾    中海安德鲁斯庄园(西区),39.90476183843278,116.49864295104172
行政中心    凤城庭院 距4号线-市中医医院897m,40.462125196854146,124.08016826195332
水贝    IBC环球商务中心 距3号线-水贝379m,22.57663560775347,114.13292375537091
甘泉宜川    泰山三村 距3号线-中潭路1112m,36.056397437854244,110.17541306458482
大学城    富力城(二期第一区商住楼... 距1号线-大学城973m,29.605486292789127,106.3118208166845
科苑    金地国际公寓 距2号线-科苑532m,36.82640315180222,118.04807128619179
南川城区    南侨豪荣华都,29.15290615271027,107.10948350079143
铜梁城区    尚风名居,39.91203010629317,116.23174299927517
翠竹    旭飞华达园 距3号线-田贝563m,31.190959156356293,120.56614380020935
工业大道北    富力现代广场 距8号线-凤凰新村1054m,39.90266393531041,116.4670233157349
龙头寺    鲁能星城六街区 距环线-渝鲁834m,29.622574572612788,106.55580427616651
春华街    华亭里(河东) 距2号线-顺驰桥637m,39.09709626055547,117.32377716536551
三阳路    融科天城(一期) 距1号线-大智路498m,39.989953037241115,116.33304095909114
三森国际家俱城    省直机关三爻小区F区 距2号线-三爻1177m,23.319370992623988,113.33294011931865
周浦    印象春城,31.12206820760573,121.59630259294185
红星路    CLUB雕墅 距3号线-新南门552m,39.998239787669704,116.3458486397302
龙洲湾    城南未来(二期) 距3号线-学堂湾506m,29.40265563398149,106.54839837605304
斜塘    荷韵新村南区 距5号线-斜塘站692m,31.251386048986205,120.74084768999748
龙洲湾    旭辉城(商住楼) 距3号线-学堂湾529m,29.407708669040417,106.54922661373298
光谷软件园    周店小区,30.923201440906,121.46516319357607
朱家角    万达茂(商住楼) 距17号线-淀山湖大道715m,31.139835692375417,121.0892771342864
北七家    羊各庄新村,40.122007402474985,116.452322366403
灞河西路    旭辉荣华公园大道,,
关山    宇峰家园 距11号线-武汉东站1339m,30.494182923536027,114.42986638191142
大石坝    东原D8公馆 距5号线-大石坝141m,29.57520000297561,106.50039715165158
工农村街    晓镇家园,39.05384060515413,117.6767658663586
石桥铺    汇祥荟广场 距环线-陈家坪284m,29.524011517043387,106.47698039311688
颛桥    绿久苑 距5号线-颛桥1490m,28.174878634729424,113.03531596327593
山阳    海悦馨苑,35.194389514381655,113.2658215308858
元和    九龙仓翠樾庭 距4号线-姚祥453m,31.39432087821638,120.60715800437006
学府大道    万科金域学府翰林菁华里 距3号线-六公里1722m,22.737965260052654,114.24110686756293
公明    石围村,22.759696144488487,113.90600118362043
罗南    美罗家园澜景苑 距7号线-罗南新村1024m,30.809764290318384,103.92087273776222
大学城    协信城天骄名城(三四期),29.52789370878533,106.57784842388244
南山中心区    青春家园 距9号线-南山书城435m,22.525380185690853,113.93626419793608
观音桥    鲤鱼池一村 距9号线-鲤鱼池718m,31.691627763743668,120.95829035702678
龙头寺    公园置尚云尚 距10号线-龙头寺公园366m,29.622574572612788,106.55580427616651
桃园路    劳动公园里 距1号线-劳动路1097m,31.297659630774866,120.600976943817
加州    龙湖佰乐街(商住楼) 距3号线-红旗河沟429m,23.444279274608878,116.76134519533254
邛崃城区    恒宇北城1号,27.902735459897524,102.27809014754705
牛王庙    蓉上坊(一期) 距2号线-牛王庙397m,39.958575096078626,116.46539980818672
新梅江南    纪泓家园 距10号线-丽江道站643m,39.07063327473304,117.20588139430279
辅仁路    康德国会山 距环线-四公里1246m,22.714334653348477,113.83544530448188
大石    郭家坊街自建房 距3号线-大石857m,22.929324858552793,113.09608803778634
成仁路    绿城凤栖鹭鸣 距30号线-棬子树1177m,39.94548431459178,116.19593492469754
张贵庄路    卫国道71号楼 距2号线-远洋国际中心1071m,39.845342183453425,116.47690620346403
等驾坡    启迪大院儿 距8号线-西等驾坡站1843m,34.23530269108712,109.01710326542656
新南湖    大华南湖公园世家西区 距8号线-文昌路510m,23.78720801729675,117.4328337739912
万体馆    南一小区 距3号线-漕溪路582m,31.189946609189025,121.44710150367025
东南开发区    裕源诚品,31.607897604491626,120.83160511570166
横岗    瑞泽佳园 距14号线-六约北站947m,22.650504337033635,114.1889339123745
曹路    中虹家园 距9号线-曹路1850m,31.28887802375613,121.67887025406094
天河智慧城    万科云城米酷 距21号线-天河智慧城720m,23.17738368154778,113.41742449487644
金汇    中建海樾府,30.96380681425917,121.49258163367384
洪山周边    花样年幸福万象 距4号线-仁和路346m,30.614237280762914,114.39351977318054
九宫庙    蓝光中央广场(商住楼) 距2号线-大渡口334m,29.4823118412674,106.49057471988651
津南八里台    碧桂园倚涛庭院,38.94542810507137,117.33718302764368
花卉园    象屿观悦府(南区) 距6号线-花卉园424m,40.39505661455299,116.84652128181908
吴江老城    恒业站前广场 距4号线-吴江人民广场302m,31.13990268588535,120.65170227969332
松江大学城    龙湖新壹城 距9号线-松江大学城857m,31.06444059487038,121.23986754285976
蔡家    旭辉紫都 距6号线-蔡家835m,43.41622085550668,124.67572056081994
璧山老城区    璧玉城,29.595186963550887,106.24241611605662
甘泉宜川    普陀长新小区北区 距7号线-新村路1308m,31.274260957882763,121.44033609538296
南坪    亚太商谷 距3号线-工贸796m,29.54010813286207,106.56568599609521
苏州街    大河庄苑 距10号线-苏州街998m,39.98743652008904,116.3102645127162
礼嘉    华侨城华悦中心 距6号线-欢乐谷199m,29.683870898089904,106.50305523765473
太湖新城    苏州湾景苑(西区),31.14834572633096,120.6007697945664
南稍门    摩登主场 距5号线-南稍门559m,31.19924053350015,121.69891414490507
茶园新区    坡岭顿小镇 距6号线-茶园991m,29.522141078461516,106.57562736350975
弹子石    国际社区观园(1期) 距环线-弹子石1954m,29.58818614828762,106.59668867516754
石井坡    信达滨江蓝庭 距1号线-石井坡567m,39.90877570866832,116.36951602550994
天穆    普天东里,39.19523875889804,117.19137043658627
车公庙    深业中城(商住楼) 距7号线-农林745m,22.690280542015405,114.34400309250826
大坪    奥园康城(A区),29.535715460979116,106.53143944599688
空港经济区    远洋新干线,23.178046965010452,113.46465120026747
礼嘉    华侨城华悦中心 距6号线-欢乐谷199m,29.683870898089904,106.50305523765473
大冲    大冲新城花园 距1号线-高新园372m,27.3428879799525,114.85595988892217
土桥    砖厂新村 距八通线-土桥1359m,24.752368025649666,113.46293911979656
红旗河沟    帝豪丽都(江北) 距3号线-红旗河沟544m,35.274944500346095,113.90947431692861
太湖新城    银城万科苏河湾 距4号线-顾家荡1138m,30.460113290447975,116.31547630162399
中北    枫香园,39.132295101478306,117.09828505523416
香雪    才筑科学家公寓 距6号线-香雪1679m,23.179220950315834,113.49864676380639
东大街    SOHO我的寓所 距2号线-东门大桥306m,39.924546897863806,116.45909783571202
大学城    龙湖U城3组团(商住楼) 距1号线-尖顶坡322m,23.444279274608878,116.76134519533254
龙洲湾    御府揽岳阁 距3号线-学堂湾1036m,29.406365848372726,106.54792667582991
李家沱    巴比亚半山 距18号线-重庆理工大学446m,29.466579437290946,106.53227882266512
大华    新沪路960弄小区 距7号线-大华三路618m,31.30325337228092,121.48662146644568
鱼化寨    双旗寨小区,34.23100374131525,108.82851552191721
光明    深业颐瑞府 距6号线-光明站992m,22.7773765500089,113.95184539683206
北塘街    欣然苑,30.517227578791008,103.63880085508491
礼嘉    华侨城华悦中心 距6号线-欢乐谷199m,29.683870898089904,106.50305523765473
定福庄    珠江绿洲家园 距八通线-传媒大学703m,22.707647221324564,113.54939276069268
郭杜    新希望锦麟天玺 距6号线-仁村38m,34.16616562665924,108.87525687285678
景泰    景云路小区 距11号线-大金钟550m,39.87962916897665,116.42170838411462
奥体中心    上城奥悦 距2号线-袁家岗785m,30.232618187567876,120.20428990179938
杨村街    保利上河雅颂(南区),39.38343613757788,117.04068301101785
徐家汇    振兴小区 距7号线-东安路348m,31.16614369644826,121.50205633137922
长桥    长桥二村 距15号线-罗秀路1039m,31.143062762578975,121.44747052757376
新江湾城    水电新村,31.34198998049357,121.53366509718937
龙头寺    商社又壹城 距3号线-郑家院子557m,29.622574572612788,106.55580427616651
城市运动公园    蔡家社区 距2号线-凤城十路637m,31.418119917886578,121.0016999826604
土主    金科天宸宸寓 距1号线-微电园552m,29.663041553763478,103.85577037012585
石坪桥    保利爱尚里彩乐荟(商住楼... 距18号线-石坪桥745m,30.759914728240027,104.08476525432732
刘家坪    中国铁建新万国城 距6号线-刘家坪1228m,32.796542909440284,104.82829308425828
农业园区    世茂璀璨天城晏旸(商住楼... 距10号线-三亚湾564m,31.5997974187015,121.81484630995355
解放碑    临江大厦(渝中) 距2号线-临江门356m,41.817678643991684,126.92458151350212
大学城    葛洲坝微客公馆 距1号线-陈家桥1727m,29.19309680375185,107.116454261716
杨家坪    百康年世纪门 距18号线-杨家坪330m,29.51753373894537,106.52194777032048
西永    龙湖拉特芳斯(二街区商住... 距1号线-微电园461m,29.602869990449168,106.38381272701083
龙洲湾    协信星澜汇(商住楼) 距3号线-鱼胡路1898m,29.408673748873145,106.54540423395872
牡丹园    花园北路38号院 距10号线-牡丹园1272m,40.427225589811854,116.84373878050192
长兴岛    长兴金茂逸墅(公寓住宅),39.609477830949906,121.46968184995237
回兴    重庆国际家纺城绣色C区 距9号线-青岗坪574m,29.666539239338363,106.62359669806563
顾村    环绿国际(别墅),31.355537961543376,121.4135341623567
等驾坡    西安理工大三期公寓 距5号线-理工大曲江校区594m,34.25959964913155,108.99975312331517
礼嘉    华侨城华悦中心 距6号线-欢乐谷199m,29.683870898089904,106.50305523765473
龙华中心区    山咀头村 距4号线-龙华827m,31.802282076350952,118.8201612787958
中南路    南国悦公馆 距4号线-洪山广场388m,31.32467420143941,120.63933656536518
人民广场    华创渝西新天地,38.91854023715633,121.62353238888251
五里店    融景城锦峰 距9号线-鲤鱼池590m,39.900355765783566,116.21361231950618
寸滩    北大资源江山名门(B区) 距4号线-黑石子942m,29.633085021901596,106.63085267098953
新牌坊    碧桂园嘉誉 距环线-民安大道903m,23.21113050507408,113.28615322430515
谢家湾    丹泰红馆(商住楼) 距2号线-袁家岗572m,29.524384170611416,106.52751861193877
龙洲湾    旭辉城(商住楼) 距3号线-学堂湾529m,29.407708669040417,106.54922661373298
中山路    东园新村(越秀) 距6号线-东山口777m,31.05258833599918,121.77606250854355
凤凰新城    康居翰林院,30.87899343859354,104.2996171153541
郭杜    万科棉花公寓,34.16616562665924,108.87525687285678
大学城    中渝春华秋实(一期),29.57621247382465,106.49834344559534
王顶堤    中海御湖翰苑(商住楼) 距6号线-迎风道541m,39.0874611933706,117.15484443624504
周浦    丽都家园 距18号线-周浦1703m,31.122772427064916,121.5899596577359
东川    永安横街15号大院 距6号线-团一大广场499m,26.08905423762305,103.19445186746451
官洲    海珠米立方 距11号线-逸景路706m,23.084021199909454,113.38585040366942
南坪    贝迪新城(2期) 距3号线-南坪580m,29.536840907086287,106.57629327738407
延长路    延长中路451弄小区 距1号线-延长路426m,31.277218673035517,121.45816988518091
郫筒    福兴花园南苑 距6号线-和平街1367m,30.809725054640843,103.89490263563822
常州道    东惠家园,39.7912366228894,116.59603705477241
石坪桥    鹏润悦秀城 距环线-陈家坪569m,34.15490348068387,108.90209240250913
弹子石    天誉智慧城(商住楼) 距环线-弹子石1154m,29.592204744087578,106.60467002979051
大学城    协信城天骄名城(二期),29.52789370878533,106.57784842388244
南坪    贝蒙松藻中心 距10号线-万寿路458m,28.990898870063365,106.62500748686857
李七庄    中盛里 距10号线-瑶环路站418m,39.06362513427632,117.18272604266375
华府    桥元丽景北区 距6号线-青岛路902m,39.864065140150515,116.46034630070979
谢家湾    丹泰红馆(商住楼) 距2号线-袁家岗572m,29.524384170611416,106.52751861193877
人和    俊和新青年 距5号线-人和1415m,29.623792837470273,106.5369907943856
北新泾    虹康花苑(三期) 距2号线-北新泾624m,31.21440631997633,121.37325072972835
莲桂路    嘉佰道 距6号线-顺江路349m,,
农业园区    隆鑫鸿府花庭,31.5997974187015,121.81484630995355
滘口    新世界凯粤湾 距5号线-滘口927m,23.13815002714035,113.33356003995088
石坪桥    隆鑫国际 距18号线-奥体中心349m,30.89450562392327,121.5032729065314
地毯路    胜林南苑,37.724961404395366,118.8635515010304
万达    苏州城市生活广场 距2号线-平泷路东359m,31.35009430375604,120.61661734105122
龙洲湾    旭辉城(三期) 距3号线-学堂湾870m,29.407708669040417,106.54922661373298
旧区    田美向北庄自建房 距9号线-花都广场1451m,22.698557895029104,113.8370016187774
石桥铺    汇祥荟广场 距环线-陈家坪284m,29.524011517043387,106.47698039311688
龙华    锦绣新村 距4号线-龙华1555m,22.657410791068465,114.0288450908832
南岸区政府    金隅新都会天屿 距6号线-邱家湾1464m,29.500329340614943,106.65164844353865
璧山老城区    融创云湖十里C区(商住楼... 距重庆云巴线-1号地铁站314m,29.62008964607432,106.23642792169854
虹桥    上虹新村七八九街坊 距9号线-漕河泾开发区1156m,31.178881708237302,121.39767394976418
姑苏城区    CCB建融家园(平江) 距2号线-平泷路东871m,39.72673487368468,116.43544401434548
地毯路    胜林南苑,37.724961404395366,118.8635515010304
鱼珠    保利鱼珠港(商住楼) 距5号线-三溪546m,39.9229081214029,116.66418799042296
高行    高行街西弄,31.706180113715096,121.02290726897051
加州    长安锦绣城 距3号线-嘉州路949m,30.695807964099412,104.05807039931786
凤栖原    木材公司家属院 距2号线-凤栖原355m,35.77125772240279,109.43874397688364
曹杨    兰岭园 距15号线-梅岭北路670m,31.24917274681249,121.41228947024209
西大沽街    天齐国际广场,36.79947205521224,120.01513676480207
两路口    儿科医院家属院 距10号线-七星岗737m,29.560584272085997,106.5541142041806
土主    融创文旅城御林组团,29.663041553763478,103.85577037012585
富民路    招商雍景湾 距11号线-海河东路1175m,23.33933804303731,113.55729254917537
南桥    中铁湖光逸景,30.923264793537378,121.51346606898365
"大沙地    坑头新村北二巷,三巷小区 距5号线-大沙地916m",23.11370803863312,113.44897810471785
黄桥    荷馨苑,30.637093441052592,104.08192454281313
华侨城    中信红树湾(南区) 距2号线-红树湾722m,22.53145225594901,113.97156320276956
徐泾北城    瑞和锦庭(东区),31.18244680878805,121.25170846710898
建工路    华清学府城 距8号线-西等驾坡站594m,31.284593996274786,121.4450255196367
小昆山    翔昆苑,31.033737378551912,121.12831533581682
龙华中心区    弓村(南区) 距4号线-龙华1279m,22.954085880136002,120.19337968747016
港隆城    新乐村 距1号线-西乡1564m,31.422612585799616,121.00011968360724
空港新城    天晋 距10号线-鹿山290m,40.111317977255055,116.55039765520193
大学城    康田漫城,29.566362730126382,106.57140936998904
龙洲湾    旭辉城(商住楼) 距3号线-学堂湾529m,29.407708669040417,106.54922661373298
钟家村    世茂锦绣长江5期 距6号线-马鹦路569m,31.38269667943434,121.22443914572588
锦业路    锦业76 距6号线-丈八六路202m,29.889788941259905,121.8193538998431
石马河    凤凰湾驭峰 距环线-南桥寺1698m,29.59588792883395,106.48896387844657
观澜    豪亚花园 距4号线-长湖1740m,23.373124586644234,103.40885807905696
曹杨    沙溪园(曹杨六村) 距3号线-曹杨路528m,31.24917274681249,121.41228947024209
南坪    贝蒙松藻中心 距10号线-万寿路458m,28.990898870063365,106.62500748686857
茶园新区    鲁能领秀城五街区(商住楼... 距6号线-邱家湾1988m,29.522141078461516,106.57562736350975
龙头寺    仁安里 距环线-渝鲁429m,29.622574572612788,106.55580427616651
杨家坪    万科西九(一期商住楼) 距18号线-石坪桥402m,29.51261085344824,106.52880238034265
南坪    升伟一里南滨(商住楼) 距3号线-南坪1079m,29.529313469766954,106.52392413227233
渡舟街道    璞缇1号御珑,29.867497158776203,107.06930741568479
长兴    天鹅花苑 距3号线-天河客运站1302m,30.95513825899059,121.33947731713083
南京东路    宁波小区 距10号线-南京东路175m,29.866068124069646,121.63084278185603
大学城    协信城天骄名城(一期),29.52789370878533,106.57784842388244
龙洲湾    协信星澜汇(一期东西区) 距3号线-鱼胡路1451m,29.408673748873145,106.54540423395872
长桥    兴南华庭(西区) 距4号线-清树湾914m,31.934901014852557,120.59759464391084
琶洲    保利天悦(商住楼) 距4号线-万胜围941m,23.104080363758758,113.34692089711857
天河公园    粤和居 距11号线-天河公园946m,23.12908994461827,113.37152602401203
张家堡    珑印台 距2号线-行政中心255m,34.342464168828194,108.95923262786275
临平路    虹叶茗园 距4号线-临平路469m,39.889679185477796,116.33409592908205
犀浦    天琅(商住楼) 距6号线-梓潼宫988m,30.742976183736683,103.99548743070982
南岗    佳兆业城市广场(商住楼) 距13号线-南岗1720m,45.751688839076955,126.6948242391136
甘泉宜川    宜洛馨苑(宜川六村) 距3号线-中潭路1017m,36.0502548602678,110.16898497001651
塘桥    东望花园,31.82935026115204,120.64060200833708
川沙    川沙,31.480664817329266,121.37802073198634
大浪    羊台新村 距4号线-龙胜1031m,22.686528596677924,114.01355700907504
松江新城    恒都广场,31.04367329541643,121.25354370526586
棠下    骏景花园 距4号线-车陂1223m,23.139259979271912,113.39339688859515
五里店    珠江太阳城(D区) 距9号线-刘家台190m,29.584197543273156,106.56393412069023
汉溪长隆    奥园城市天地 距7号线-汉溪长隆732m,22.635554575400455,113.85354966389345
杨家坪    万科西九(一期商住楼) 距18号线-石坪桥402m,29.51261085344824,106.52880238034265
南浦大桥    普育东路7号小区 距4号线-南浦大桥544m,25.262646612139804,110.28583402197994
簇桥    世纪百合尚寓 距9号线-簇桥701m,30.606916672157418,103.99299391427522
文冲    万科城市之光 距5号线-大沙东823m,23.107846240738635,113.47555968339374
浐河西路    龙湖香醍国际 距1号线-长乐坡1463m,40.03244772529112,116.44446533726
北苑    浩华北郡(北区) 距10号线-红旗厂站638m,38.07733175517638,114.4482670923167
李家沱    半山壹号(东区) 距3号线-岔路口1362m,29.463169875668093,106.55719916496196
西永    金科天宸十二街区 距1号线-微电园502m,29.602869990449168,106.38381272701083
白云大道北    集贤中街小区 距3号线(北延段)-白云大道北1374m,39.80946410767813,116.44184596822343
万胜围    琶洲新村 距4号线-万胜围478m,23.106577885822823,113.38923162560785
汉口火车站    万科汉口传奇唐樾 距6号线-唐家墩1032m,37.321127677461426,97.3911088501482
九宫庙    仁有逸景 距2号线-新山村1029m,29.476996946924796,106.48936955321474
南桥寺    龙湖源著(3期公寓楼) 距环线-体育公园776m,23.37777578062844,116.7235246469334
大学城    恒大未来城四街区,30.6774548648182,103.86996899841161
寸滩    绿地保税中心(二期) 距9号线-保税港167m,29.628129915391902,106.59076102660079
祈福    祈福缤纷汇 距22号线-市广路785m,22.97853548274284,113.3382957269368
新桥    华宇城M10组团(商住楼... 距环线-凤鸣山617m,30.707420311061604,104.04789116060098
茶园新区    鲁能领秀城五街区(商住楼... 距6号线-邱家湾1988m,29.522141078461516,106.57562736350975
中新镇    恒大山水城,31.010348630626336,105.17566216564205
双港    首创昆兰苑(商住楼) 距6号线二期-景荷道786m,23.331114058580003,113.23683795860414
南桥寺    龙湖源著(3期公寓楼) 距环线-体育公园776m,23.37777578062844,116.7235246469334
十陵    华润置地时代之城,30.653816675275607,104.18447770491818
松江新城    时尚谷创意园,31.036728830291946,121.17523805463888
龙洲湾    旭辉城(商住楼) 距3号线-学堂湾529m,29.407708669040417,106.54922661373298
紫薇田园都市    海亮新英里 距西安高新云巴线-付村1829m,27.979853117559255,108.59060594210122
周浦    汇福家园健康里,31.120037799759316,121.58171475269725
照母山    建工嘉寓 距5号线-重光410m,29.629132980557177,106.51013127998503
交大曲江校区    恒大御龙湾 距8号线-马腾空站1626m,24.688407846380294,113.61150106464875
广钢新城    中海保利朗阅 距11号线-鹤洞东1354m,39.92297763515666,116.39409034053254
龙兴    黄金嘉年华 距4号线-龙驿大道405m,30.931028422836086,121.6892922149266
郭杜    雅居乐湖居笔记星徽,34.16616562665924,108.87525687285678
科技西路西段    岳旗寨安置楼,34.24257225903091,108.8180709237527
新塘    敏捷锦绣天伦 距13号线-官湖1646m,23.154898847926688,113.62551840348291
南坪西路    长江小区 距3号线-工贸1144m,31.231151935019668,121.43163690482433
城南    城南印象生活广场 距7号线-红庄站738m,32.33495665559474,116.26910900509876
迎宾街    建安里(滨海),33.99564654746655,119.82762105908833
蛇口    海韵嘉园 距2号线-水湾769m,22.491623348563895,113.93192484334101
曲江第一学校    阳光城翡丽花园,24.688407846380294,113.61150106464875
硚口周边    长丰城(H5区),30.615307666920263,114.21826423089755
金阊新城    彤云嘉卉花园北区 距8号线-徐望站964m,31.363329910138653,120.56356880746499
回兴    国际家纺城(A区) 距9号线-青岗坪610m,29.67334548682683,106.6199565844793
空港新城    中航中央城 距9号线-兴科大道1104m,39.93385120026119,116.41355212940621
芥园街    荣盛碧桂园云鼎 距6号线-人民医院887m,39.66745635365092,118.21524953482073
光明    新地中央(商住楼) 距6号线-光明大街站274m,39.92122994788037,116.54594188021134
田林    田林十四村 距9号线-桂林路657m,31.180454886006185,121.42946201735414
华强北    恒邦壹峯 距2号线-燕南260m,22.553183757626208,114.09404653020073
南滨路    东原锦悦 距3号线-南坪909m,39.70773634642217,116.32962623035606
唐家墩    万科公园5号 距6号线-唐家墩1142m,39.931332946813065,116.48383016267383
西长安街    紫宸公寓 距2号线-凤栖原389m,39.77133903436151,116.55701744816606
城北    海亮长桥府 距4号线-江陵西路1043m,30.79817308835666,121.21833174622464
等驾坡    陆荣花园 距5号线-黄渠头1102m,34.22711311126401,109.0139700656383
东圃    美林湖畔花园 距5号线-三溪906m,24.981081964822017,118.39366404206277
汽博中心    重庆新科国际广场 距3号线-金童路588m,29.64757039315387,106.57475169529891
新桥    万科金色悦城(5期商住楼... 距5号线-凤西路620m,40.07558875358126,116.31772134675452
湖贝    润月广场 距2号线-湖贝445m,22.553970538035376,114.13496910718592
堤角    美城汉口派 距阳逻线-新荣284m,30.66197221078624,114.34299314248302
双山    中交万都汇 距2号线-平安1507m,41.14430575459048,123.02599857141405
纸坊    东城明珠(江夏) 距7号线-北华街1507m,30.361567206433538,114.3307727739864
青村    北港小区,30.93553318427774,121.58875664699694
龙岗中心城    万科广场V寓 距3号线-龙城广场772m,22.724160962387074,114.25664602576106
天河智慧城    凌塘村新庄小区 距21号线-天河智慧城1295m,23.17738368154778,113.41742449487644
曹路    中虹家园 距9号线-曹路1850m,31.28887802375613,121.67887025406094
同和    云涛花园 距3号线(北延段)-同和220m,23.20355203454653,113.3347275676218
吴江老城    兰景苑 距4号线-松陵大道1560m,31.14943281759426,120.63623929779733
西永    金科天宸十二街区 距1号线-微电园502m,29.602869990449168,106.38381272701083
堤角    十大家世纪城(北区) 距阳逻线-新荣781m,30.66197221078624,114.34299314248302
陕西大会堂    高新尚品 距6号线-丈八四路1760m,34.213023365591695,108.87732710773508
张江    申城佳苑三期A块 距13号线-张江路1849m,31.186646390964775,121.64568379428361
"姑苏城区    葑门路150,151号小... 距6号线-徐家浜站903m",31.066545793677896,121.27003237239316
汽博中心    奥林匹克花园新亚洲 距3号线-金渝872m,29.648292570114712,106.57927394489575
三桥    启航佳苑 距1号线-后卫寨413m,32.88588016280268,114.3622981770452
黄埭    苏阳路6号小区,30.940609892826757,121.0318774783015
