[
    {
        "location": "体育中心    宝龙城市广场(晋江)",
        "latitude": 24.808068281382436,
        "longitude": 118.57263973689511
    },
    {
        "location": "宗关    融侨锦江 距1号线-宗关664m",
        "latitude": 30.58512178524914,
        "longitude": 114.23583472735051
    },
    {
        "location": "上海南站    汇成苑一村 距15号线-华东理工大学979m",
        "latitude": 31.159438874262317,
        "longitude": 121.43586513902925
    },
    {
        "location": "台商投资区    保利时光印象",
        "latitude": 23.1987530916325,
        "longitude": 113.57288084468487
    },
    {
        "location": "大唐西市    御溪书院(商业) 距6号线-大唐西市791m",
        "latitude": 31.15317696641399,
        "longitude": 121.39894613002743
    },
    {
        "location": "进港大道    金涌街小区 距4号线-大涌429m",
        "latitude": 23.1376613461669,
        "longitude": 113.32675492656227
    },
    {
        "location": "松江大学城    莱顿小城",
        "latitude": 31.072669881386464,
        "longitude": 121.25248199798361
    },
    {
        "location": "白云公园    白金壹号C区",
        "latitude": 26.688797420388234,
        "longitude": 106.65668946456732
    },
    {
        "location": "观音桥    城市领地 距3号线-华新街300m",
        "latitude": 29.572660731536796,
        "longitude": 106.54313547356348
    },
    {
        "location": "拉萨火车站    顿珠金融城融晖园",
        "latitude": 29.641159087347475,
        "longitude": 91.10190236753022
    },
    {
        "location": "新安    宝河大厦 距12号线-新安公园402m",
        "latitude": 34.743560300567246,
        "longitude": 112.13816101742249
    },
    {
        "location": "群力    里普利广场",
        "latitude": 45.73953955880347,
        "longitude": 126.52904114877119
    },
    {
        "location": "布达拉宫广场    拉萨市第四期安居园",
        "latitude": 29.68679593804462,
        "longitude": 91.14442815035852
    },
    {
        "location": "两路口    下罗家湾3-7号,29号... 距10号线-曾家岩572m",
        "latitude": 29.571743248275318,
        "longitude": 106.93738074141365
    },
    {
        "location": "湖东    凤凰城(工业园区) 距6号线-涵青桥站940m",
        "latitude": 40.46582033258959,
        "longitude": 124.07432038291391
    },
    {
        "location": "布达拉宫广场    哈达职工住宅区(孜希塘路...",
        "latitude": 41.16511618909607,
        "longitude": 121.34572422347776
    },
    {
        "location": "公明    金地明峰府 距6号线-薯田埔站253m",
        "latitude": 22.785134526043514,
        "longitude": 113.90322883315646
    },
    {
        "location": "彩虹城    钱江彩虹城 距4号线-联庄641m",
        "latitude": 39.84503008709615,
        "longitude": 116.42290402874839
    },
    {
        "location": "花果园    花果园半山小镇W2区 距3号线-松花路1127m",
        "latitude": 30.706157357809133,
        "longitude": 104.07821849360116
    },
    {
        "location": "布达拉宫广场    哈达职工住宅区(孜希塘路...",
        "latitude": 41.16511618909607,
        "longitude": 121.34572422347776
    },
    {
        "location": "安埠    安埠小区(南区) 距3号线-油坊街724m",
        "latitude": 45.734800388450765,
        "longitude": 126.70096640303812
    },
    {
        "location": "葵涌    卓越蔚蓝铂樾府",
        "latitude": 22.63461457332589,
        "longitude": 114.43980674630191
    },
    {
        "location": "布达拉宫广场    康桑苑(娘热路)",
        "latitude": 41.16511618909607,
        "longitude": 121.34572422347776
    },
    {
        "location": "龙洲湾    佳兆业广场(一期) 距3号线-大山村1199m",
        "latitude": 29.416903649715525,
        "longitude": 106.54360340090348
    },
    {
        "location": "拉萨火车站    圣地财富广场",
        "latitude": 29.637407098361823,
        "longitude": 91.08554305640176
    },
    {
        "location": "和睦    杭曜置地中心(南区) 距5号线-和睦702m",
        "latitude": 30.319613543161253,
        "longitude": 120.12824905902416
    },
    {
        "location": "后湖    星悦城一期 距8号线-中一路1171m",
        "latitude": 40.012119820371865,
        "longitude": 116.30256414805412
    },
    {
        "location": "城关    城关",
        "latitude": 36.0631814753695,
        "longitude": 103.83147490052859
    },
    {
        "location": "南坪    升伟一里南滨(商住楼) 距3号线-南坪1079m",
        "latitude": 29.529313469766954,
        "longitude": 106.52392413227233
    },
    {
        "location": "西寨    田园美居 距2号线-韦曲南405m",
        "latitude": 39.613953005533226,
        "longitude": 117.19801583125742
    },
    {
        "location": "农业园区    金鹏两江时光 距9号线-宝圣湖1643m",
        "latitude": 42.66037494317727,
        "longitude": 128.11242705884513
    },
    {
        "location": "金银湖    融创观澜壹号(西区) 距6号线-海口三路1852m",
        "latitude": 30.65159302378657,
        "longitude": 114.16814695802091
    },
    {
        "location": "布达拉宫广场    宏发尼盛峰誉",
        "latitude": 41.16511618909607,
        "longitude": 121.34572422347776
    },
    {
        "location": "凤凰城    碧桂园凤凰城凤馨苑",
        "latitude": 40.46582033258959,
        "longitude": 124.07432038291391
    },
    {
        "location": "中南路    嘉园大厦 距4号线-中南路91m",
        "latitude": 30.679873041216386,
        "longitude": 104.04611619874382
    },
    {
        "location": "弹子石    泽京微V",
        "latitude": 30.861289477524796,
        "longitude": 108.01699485810546
    },
    {
        "location": "新添寨    北衙尚城",
        "latitude": 26.64260428083102,
        "longitude": 106.7772236487036
    },
    {
        "location": "溧水区    秦淮佳苑5期 距S7号线-溧水1488m",
        "latitude": 31.677413366394315,
        "longitude": 119.05837582037333
    },
    {
        "location": "彭后    元北小区 距2号线-槐中路1447m",
        "latitude": 31.279937808755786,
        "longitude": 121.58698707497284
    },
    {
        "location": "花果园    花果园R区(商住楼) 距3号线-五里冲761m",
        "latitude": 26.570062524642587,
        "longitude": 106.67867953429156
    },
    {
        "location": "八匹马    富力新天地 距2号线-观山西路719m",
        "latitude": 23.131151797575086,
        "longitude": 113.39270752894701
    },
    {
        "location": "科技路西口    中国铁建瑞园 距3号线-丈八北路801m",
        "latitude": 30.114235152277878,
        "longitude": 119.17770259211345
    },
    {
        "location": "布达拉宫广场    加措社区",
        "latitude": 28.784026930087183,
        "longitude": 87.259505741444
    },
    {
        "location": "三桥    万科云岩大都会 距2号线-改茶路549m",
        "latitude": 26.590645601638006,
        "longitude": 106.67770729823843
    },
    {
        "location": "金色港湾    观澜高尔夫公馆 距6号线-江城大道1709m",
        "latitude": 39.75829401353539,
        "longitude": 116.2969633928605
    },
    {
        "location": "朝天宫    莫愁路249-265号(... 距2号线-上海路941m",
        "latitude": 32.055288244816566,
        "longitude": 118.78391208770427
    },
    {
        "location": "拉萨火车站    双创广场",
        "latitude": 29.63316609542391,
        "longitude": 91.08965100749754
    },
    {
        "location": "淘金    保利麓苑 距5号线-小北924m",
        "latitude": 39.92233810593866,
        "longitude": 116.37030231232282
    },
    {
        "location": "三里屯    首开幸福广场 距17号线北段-工人体育场420m",
        "latitude": 39.943351020897126,
        "longitude": 116.45600146644968
    },
    {
        "location": "石林城区    世纪阳光(一期)",
        "latitude": 40.37760206345945,
        "longitude": 116.84574424755294
    },
    {
        "location": "朝青板块    青年汇佳园 距6号线-青年路490m",
        "latitude": null,
        "longitude": null
    },
    {
        "location": "安溪万达广场    安溪万达华府",
        "latitude": 25.078393510951315,
        "longitude": 118.22965726109096
    },
    {
        "location": "休门    四中路68号大院 距2号线-裕华路454m",
        "latitude": 30.67582050540015,
        "longitude": 104.04896364754936
    },
    {
        "location": "潘家园    农光南里 距10号线-潘家园442m",
        "latitude": 39.88300607704931,
        "longitude": 116.46886538101366
    },
    {
        "location": "滇池路片区    南亚风情第壹城南亚星光苑 距5号线-福海383m",
        "latitude": 34.015759132808405,
        "longitude": 108.75259918428566
    },
    {
        "location": "垡头    首创繁星",
        "latitude": 39.84424121857243,
        "longitude": 116.54406370305108
    },
    {
        "location": "布达拉宫广场    尼霞苑(B区)",
        "latitude": 41.16511618909607,
        "longitude": 121.34572422347776
    },
    {
        "location": "青村    北唐新苑(东区)",
        "latitude": 30.935522807565917,
        "longitude": 121.58376197853092
    },
    {
        "location": "北国商城    休门南街6号院 距2号线-裕华路866m",
        "latitude": 38.0944290560109,
        "longitude": 114.31258981283672
    },
    {
        "location": "大石    天骄时代 距3号线-大石798m",
        "latitude": 23.02216166551463,
        "longitude": 113.33062347923972
    },
    {
        "location": "北苑    北苑小区(新华) 距3号线-西三庄1687m",
        "latitude": 38.0856818525086,
        "longitude": 114.4585245734435
    },
    {
        "location": "蔡家    红星大都汇 距6号线-蔡家1222m",
        "latitude": 38.862203320901365,
        "longitude": 115.51834622259045
    },
    {
        "location": "琶洲    保利天悦 距4号线-万胜围1182m",
        "latitude": 23.104080363758758,
        "longitude": 113.34692089711857
    },
    {
        "location": "大浪    元芬新村 距6号线-元芬站692m",
        "latitude": 22.660688961580146,
        "longitude": 114.00894995943808
    },
    {
        "location": "西安交通大学    陕钢家属院 距6号线-公园南路51m",
        "latitude": 30.77039889704779,
        "longitude": 103.99321381946406
    },
    {
        "location": "东平新城    盈天广场(商住楼) 距3号线-湾华587m",
        "latitude": 35.94190801501926,
        "longitude": 116.47759421565412
    },
    {
        "location": "胜北    神州嘉园花香维也纳 距2号线-建和桥1231m",
        "latitude": 31.990730797663037,
        "longitude": 117.69121349353668
    },
    {
        "location": "南坪    万达广场银邸 距3号线-南坪192m",
        "latitude": 29.536840907086287,
        "longitude": 106.57629327738407
    },
    {
        "location": "佳荣里街    瑞桐家园",
        "latitude": 39.19323956393515,
        "longitude": 117.1156332210734
    },
    {
        "location": "进港大道    阳光城丽景湾澜悦",
        "latitude": 40.162528800823154,
        "longitude": 117.11393838806772
    },
    {
        "location": "赵陵铺    苏秀苑 距3号线-柏林庄1287m",
        "latitude": 38.09978305739108,
        "longitude": 114.48048805333191
    },
    {
        "location": "前卫营    润城第四大道",
        "latitude": 25.311479119256447,
        "longitude": 102.77141914192889
    },
    {
        "location": "石铜路    丰河苑",
        "latitude": 36.18664365101327,
        "longitude": 120.41765354008778
    },
    {
        "location": "石狮泰禾广场    曾坑社区自建房",
        "latitude": 24.733763742377075,
        "longitude": 118.65278691379108
    },
    {
        "location": "高营    南高营",
        "latitude": 38.094581907206496,
        "longitude": 114.56777029125898
    },
    {
        "location": "拉萨火车站    圣地财富广场",
        "latitude": 29.637407098361823,
        "longitude": 91.08554305640176
    },
    {
        "location": "奥南    莲花新城北苑 距S3号线-油坊桥164m",
        "latitude": 41.446771528957576,
        "longitude": 120.06498265958413
    },
    {
        "location": "北市区    金水湾小区 距2号线-司家营1183m",
        "latitude": 31.176419085183927,
        "longitude": 121.27047604548453
    },
    {
        "location": "鹿角    融创欧麓花园城依云郡",
        "latitude": 29.137521288558787,
        "longitude": 108.29567445682379
    },
    {
        "location": "布达拉宫广场    加措社区",
        "latitude": 28.784026930087183,
        "longitude": 87.259505741444
    },
    {
        "location": "西安奥体中心    1668新时代广场 距3号线-国际港务区970m",
        "latitude": 34.367774489116684,
        "longitude": 109.03867903665686
    },
    {
        "location": "武宁    中岚大楼 距3号线-镇坪路525m",
        "latitude": 29.262352150699854,
        "longitude": 115.10744177398514
    },
    {
        "location": "龙溪    金城国际 距6号线-花卉园830m",
        "latitude": 45.55025192520799,
        "longitude": 126.98177149528703
    },
    {
        "location": "城市广场    星空广场 距广佛线-南桂路1986m",
        "latitude": 39.72878228840534,
        "longitude": 116.18500946359353
    },
    {
        "location": "小寨    陕西省军区西安第八离职干... 距3号线-小寨728m",
        "latitude": 34.051643462590974,
        "longitude": 109.29411400503011
    },
    {
        "location": "冉家坝    兴茂盛世北辰(B区) 距环线-南桥寺966m",
        "latitude": 29.590431057389644,
        "longitude": 106.4947907371351
    },
    {
        "location": "竹子林    一冶广场 距2号线-深康1085m",
        "latitude": 30.633725977522474,
        "longitude": 114.2763644753497
    },
    {
        "location": "观音桥    旭阳朗晴广场 距3号线-观音桥369m",
        "latitude": 39.78548772337107,
        "longitude": 116.59435084549965
    },
    {
        "location": "盛泽    新城十里锦绣",
        "latitude": 30.887544769622583,
        "longitude": 120.5658373881999
    },
    {
        "location": "韦曲    长安花园 距2号线-航天城361m",
        "latitude": 34.164915878664615,
        "longitude": 108.94122860917068
    },
    {
        "location": "潍坊新村    潍坊六村 距6号线-浦电路768m",
        "latitude": 36.71265155126753,
        "longitude": 119.16837791142822
    },
    {
        "location": "建港    弘阳印月府 距6号线-前进村1607m",
        "latitude": 31.036517804975315,
        "longitude": 121.84800016124085
    },
    {
        "location": "布达拉宫广场    加措社区",
        "latitude": 28.784026930087183,
        "longitude": 87.259505741444
    },
    {
        "location": "钱江世纪城    君品名邸 距2号线-盈丰路1319m",
        "latitude": 30.237506005826564,
        "longitude": 120.26058248607382
    },
    {
        "location": "朝外大街    中骏世界城 距6号线-东大桥690m",
        "latitude": 39.91773056473404,
        "longitude": 116.13213026059591
    },
    {
        "location": "潮鸣    兴和公寓 距5号线-建国北路421m",
        "latitude": 23.19932234721448,
        "longitude": 113.37366192502242
    },
    {
        "location": "湖墅    大塘新村 距2号线-沈塘桥895m",
        "latitude": null,
        "longitude": null
    },
    {
        "location": "布达拉宫广场    加措社区",
        "latitude": 28.784026930087183,
        "longitude": 87.259505741444
    },
    {
        "location": "光谷软件园    旭辉千山凌云 距2号线-黄龙山路1442m",
        "latitude": 40.12917936026686,
        "longitude": 116.61863357055371
    },
    {
        "location": "浮桥    鼎盛大观",
        "latitude": 24.970317038896575,
        "longitude": 118.40797701324017
    },
    {
        "location": "温泉    富力泉天下",
        "latitude": 47.286267328178155,
        "longitude": 130.29142965692074
    },
    {
        "location": "北湖    紫藤花园 距6号线-三眼桥304m",
        "latitude": 39.95412764421206,
        "longitude": 116.4881440952244
    },
    {
        "location": "四新    保和墨水湾 距6号线-建港1934m",
        "latitude": 30.53721817875035,
        "longitude": 114.25240127756553
    },
    {
        "location": "西安交通大学    云峰大厦(碑林) 距5号线-雁翔路北口339m",
        "latitude": 30.77039889704779,
        "longitude": 103.99321381946406
    },
    {
        "location": "昆明路    宏府鹍翔荟 距5号线-汉城南路371m",
        "latitude": 29.790911071106986,
        "longitude": 119.69992592608004
    },
    {
        "location": "福永    会展湾东城广场 距12号线-国展北1029m",
        "latitude": 39.93482727239599,
        "longitude": 116.4224009776628
    },
    {
        "location": "西南    旭辉城",
        "latitude": 39.68525515436743,
        "longitude": 116.14317250141622
    },
    {
        "location": "韩森寨    融创东方宸院 距8号线-韩森寨站287m",
        "latitude": 34.25713761539783,
        "longitude": 109.02880046079417
    },
    {
        "location": "拉萨火车站    海亮世纪新城",
        "latitude": 29.62306098553846,
        "longitude": 91.08870796637346
    },
    {
        "location": "容桂    实地紫藤公馆",
        "latitude": 22.768501188158954,
        "longitude": 113.26486284474241
    },
    {
        "location": "拉萨火车站    高度梧家",
        "latitude": 29.63406614051518,
        "longitude": 91.08741701152552
    },
    {
        "location": "二郎    金科云湖天都",
        "latitude": 29.51209435722599,
        "longitude": 106.49148569150388
    },
    {
        "location": "万达广场    万达华府C区",
        "latitude": 39.912079085025304,
        "longitude": 116.23189795697564
    },
    {
        "location": "冉家坝    新城丽都 距5号线-大龙山786m",
        "latitude": 29.59649396776858,
        "longitude": 106.49818202009526
    },
    {
        "location": "辛家庙    天香心苑 距3号线-辛家庙354m",
        "latitude": 34.32731772535735,
        "longitude": 109.02736155502829
    },
    {
        "location": "天河智慧城    万科云城米酷 距21号线-天河智慧城720m",
        "latitude": 23.17738368154778,
        "longitude": 113.41742449487644
    },
    {
        "location": "紫金山    奥克斯钟山府 距2号线-仙鹤门901m",
        "latitude": 23.23591564137028,
        "longitude": 113.72072037224618
    },
    {
        "location": "天河客运站    长福路小区 距3号线-天河客运站1336m",
        "latitude": 23.176344896220243,
        "longitude": 113.35067428702968
    },
    {
        "location": "钱江世纪城    拥翠府 距7号线-明星路1531m",
        "latitude": 30.237506005826564,
        "longitude": 120.26058248607382
    },
    {
        "location": "太白立交    凯旋城 距5号线-边家村981m",
        "latitude": 40.00387414654514,
        "longitude": 116.4261095421302
    },
    {
        "location": "赵巷    龙湖滟澜山(一期公寓住宅...",
        "latitude": 40.097958953793785,
        "longitude": 116.50779884012162
    },
    {
        "location": "二仙桥    中车共享城锦苑 距8号线-十里店1086m",
        "latitude": 39.89683482603021,
        "longitude": 116.19099092066226
    },
    {
        "location": "皇岗    阳光城市 距10号线-福民站640m",
        "latitude": 22.53310734817462,
        "longitude": 114.06830684344853
    },
    {
        "location": "天河北    隆德大厦 距3号线-石牌桥100m",
        "latitude": 23.139580916543036,
        "longitude": 113.33696668393523
    },
    {
        "location": "布达拉宫广场    天峰祥和苑",
        "latitude": 26.869678693431933,
        "longitude": 100.23760005180283
    },
    {
        "location": "泗村店镇    恒大山水城(西区)",
        "latitude": 39.485925396507206,
        "longitude": 116.9602596051511
    },
    {
        "location": "悦来    首地江山赋悦江城 距10号线-悦来1505m",
        "latitude": 29.7336071449269,
        "longitude": 106.56293736089668
    },
    {
        "location": "莲花片区    云南省招考院家属区 距4号线-小菜园站764m",
        "latitude": 24.884725037412892,
        "longitude": 102.8207320720356
    },
    {
        "location": "拉萨火车站    兴旺小区",
        "latitude": 29.62936247542549,
        "longitude": 91.076709030189
    },
    {
        "location": "花溪公园    花溪区人民医院宿舍 距3号线-花溪公园277m",
        "latitude": 26.439191464638988,
        "longitude": 106.67855691558948
    },
    {
        "location": "呼兰城区    顺迈欣郡3期 距2号线-江北大学城1076m",
        "latitude": 45.879071033281974,
        "longitude": 126.55054415725532
    },
    {
        "location": "横泾    兴建小区",
        "latitude": 45.609239741837875,
        "longitude": 126.64779911346314
    },
    {
        "location": "布达拉宫广场    天峰祥和苑",
        "latitude": 26.869678693431933,
        "longitude": 100.23760005180283
    },
    {
        "location": "布达拉宫广场    加措社区",
        "latitude": 28.784026930087183,
        "longitude": 87.259505741444
    },
    {
        "location": "泥城    群峰雅苑",
        "latitude": 30.89546216203608,
        "longitude": 121.80697095537812
    },
    {
        "location": "鱼洞    曦圆江南华都 距3号线-鱼胡路373m",
        "latitude": 23.782658856616408,
        "longitude": 114.0322928772599
    },
    {
        "location": "新螺蛳湾    万科公园里(二期) 距1号线-南部汽车站1144m",
        "latitude": 24.96550968275435,
        "longitude": 102.78661972878042
    },
    {
        "location": "光明    正兆景嘉园 距6号线-楼村站1300m",
        "latitude": 22.7757063567566,
        "longitude": 113.92650563569276
    },
    {
        "location": "杨公桥    俊峰龙凤云洲 距1号线-杨公桥109m",
        "latitude": 31.288166102970695,
        "longitude": 121.49620063708187
    },
    {
        "location": "群力    三松宜家 距3号线-医大一院群力医院799m",
        "latitude": 30.304217084576504,
        "longitude": 105.84792149065008
    },
    {
        "location": "大商汇    未名城(3期)",
        "latitude": 24.987809580206612,
        "longitude": 102.71448696415018
    },
    {
        "location": "新华路    三金华都 距6号线-唐家墩930m",
        "latitude": 34.793893057567836,
        "longitude": 113.54782307624171
    },
    {
        "location": "云东海    保利中央公园(中韵二期)",
        "latitude": 34.52554234915723,
        "longitude": 118.76623060919876
    },
    {
        "location": "哈西    中海雍景熙岸 距3号线-哈西大街1279m",
        "latitude": 45.692133035234,
        "longitude": 126.60190028326107
    },
    {
        "location": "新牌坊    龙湖西苑锦水苑 距环线-洪湖东路670m",
        "latitude": 23.21113050507408,
        "longitude": 113.28615322430515
    },
    {
        "location": "中闽百汇    泉州五中教工宿舍",
        "latitude": 24.89146862650609,
        "longitude": 118.61678085269094
    },
    {
        "location": "关山    保利时代(北区)",
        "latitude": 30.497010721977198,
        "longitude": 114.41438130169988
    },
    {
        "location": "横沥    越秀明珠天悦江湾",
        "latitude": 23.13526012014849,
        "longitude": 113.27342648099675
    },
    {
        "location": "磁各庄    北京城建北京密码(西区)",
        "latitude": 39.68841230489194,
        "longitude": 116.40310735158062
    },
    {
        "location": "北站    电大街院",
        "latitude": null,
        "longitude": null
    },
    {
        "location": "哈西    南开华府 距1号线-理工大学1397m",
        "latitude": 45.71526089145673,
        "longitude": 126.5982048340541
    },
    {
        "location": "石桥铺    高柳馨园 距5号线-巴山376m",
        "latitude": 29.527323551747642,
        "longitude": 106.47981939784965
    },
    {
        "location": "火车北站    王旗营万福里小区 距5号线-火车北站700m",
        "latitude": 40.23723084047673,
        "longitude": 116.23778913434062
    },
    {
        "location": "杨家坪    万科西九(一期商住楼) 距18号线-石坪桥402m",
        "latitude": 29.51261085344824,
        "longitude": 106.52880238034265
    },
    {
        "location": "群力    群力新苑(东区) 距3号线-工农大街1069m",
        "latitude": 31.065807282024956,
        "longitude": 121.3959244997835
    },
    {
        "location": "控江路    控江五村 距8号线-延吉中路587m",
        "latitude": 31.289104143103607,
        "longitude": 121.52538254072627
    },
    {
        "location": "大石坝    东原D8公馆 距5号线-大石坝141m",
        "latitude": 29.57520000297561,
        "longitude": 106.50039715165158
    },
    {
        "location": "固戍    臣田开元广场 距12号线-宝田一路850m",
        "latitude": 22.597232212983137,
        "longitude": 113.85114346275523
    },
    {
        "location": "嘉陵道    沱江里 距6号线-宜宾道392m",
        "latitude": null,
        "longitude": null
    },
    {
        "location": "继红    东泰金谷 距1号线-医大一院563m",
        "latitude": 24.414425844197165,
        "longitude": 116.21309209530831
    },
    {
        "location": "布达拉宫广场    嘎玛贡桑住宅区",
        "latitude": 29.657253391022504,
        "longitude": 91.15611878809207
    },
    {
        "location": "乐从    保利天寰 距3号线-大墩989m",
        "latitude": 22.96418785602284,
        "longitude": 113.09569556810916
    },
    {
        "location": "渝北黄泥磅    伟岸摩登堡 距3号线-郑家院子339m",
        "latitude": 29.60615813899437,
        "longitude": 106.53675732478364
    },
    {
        "location": "果园    长城国际 距八通线-通州北苑1488m",
        "latitude": 39.903923778112734,
        "longitude": 116.32356949528558
    },
    {
        "location": "徐泾    西郊家园(青浦) 距2号线-国家会展中心963m",
        "latitude": 30.963493360390036,
        "longitude": 121.16018901192187
    },
    {
        "location": "蔡甸城区    恒瑞佳园 距4号线-临嶂大道383m",
        "latitude": 30.580548977544872,
        "longitude": 114.03627202610356
    },
    {
        "location": "桥南片区    百捷中央公园御府",
        "latitude": 46.80766769805838,
        "longitude": 130.3713399506807
    },
    {
        "location": "傅家坡    佳兆业广场天御(商住楼) 距4号线-梅苑小区711m",
        "latitude": 29.575904877894363,
        "longitude": 105.43384081661809
    },
    {
        "location": "西湖三墩    龙湖紫金上城 距2号线-三墩153m",
        "latitude": 30.297937002589514,
        "longitude": 120.10554546522609
    },
    {
        "location": "祖庙    保利同济府 距广佛线-同济路195m",
        "latitude": 23.035877066848766,
        "longitude": 113.12484710901768
    },
    {
        "location": "马街    融创文旅城归海花园南区",
        "latitude": 30.975364787050616,
        "longitude": 103.61598856632013
    },
    {
        "location": "白龙路片区    巨和美术 距5号线-白龙寺652m",
        "latitude": 34.015759132808405,
        "longitude": 108.75259918428566
    },
    {
        "location": "解放碑    两江嘉苑 距6号线-小什字872m",
        "latitude": 29.56866074754047,
        "longitude": 106.59089173005246
    },
    {
        "location": "安海    翰墨学苑",
        "latitude": 24.72299352442274,
        "longitude": 118.48286119781599
    },
    {
        "location": "余杭三墩    亲亲家园一期 距2号线-墩祥街638m",
        "latitude": 30.341446924630745,
        "longitude": 120.09675069496119
    },
    {
        "location": "人和    同舟世纪苑",
        "latitude": 29.63310260222568,
        "longitude": 106.54354546019809
    },
    {
        "location": "布达拉宫广场    嘉和丽景",
        "latitude": 41.16511618909607,
        "longitude": 121.34572422347776
    },
    {
        "location": "城关    城关",
        "latitude": 36.0631814753695,
        "longitude": 103.83147490052859
    },
    {
        "location": "海伦国际    海伦堡海伦国际海乐荟",
        "latitude": 47.47043887638964,
        "longitude": 126.97987750794978
    },
    {
        "location": "龙华中心区    壹成中心第十区 距4号线-龙华1158m",
        "latitude": 22.657410791068465,
        "longitude": 114.0288450908832
    },
    {
        "location": "闸弄口    同方国际 距4号线-新塘828m",
        "latitude": 30.29567862123933,
        "longitude": 120.19753608165317
    },
    {
        "location": "哈西    壹品新境 距3号线-凯盛源广场1004m",
        "latitude": 45.71526089145673,
        "longitude": 126.5982048340541
    },
    {
        "location": "三森国际家俱城    启航029小区 距2号线-三爻703m",
        "latitude": 23.319370992623988,
        "longitude": 113.33294011931865
    },
    {
        "location": "江岸周边    跃进家园D区 距8号线-中一路1183m",
        "latitude": 30.645143598635705,
        "longitude": 114.2799886889297
    },
    {
        "location": "花果园    花果园B北区 距3号线-松花路451m",
        "latitude": 26.570062524642587,
        "longitude": 106.67867953429156
    },
    {
        "location": "世纪城    金阳世纪城龙泉苑东区 距2号线-百花大道1670m",
        "latitude": 39.95937024328548,
        "longitude": 116.28668677782635
    },
    {
        "location": "太华北路    凤鸣华府(未央) 距8号线-市第三医院站217m",
        "latitude": 30.338515685933746,
        "longitude": 103.27490151502873
    },
    {
        "location": "琉璃厂    东方阳光城(B区) 距6号线-琉三路333m",
        "latitude": 30.595867682449047,
        "longitude": 104.10107039763894
    },
    {
        "location": "李七庄    美域兰庭 距10号线-昌凌路站586m",
        "latitude": 39.07370975502789,
        "longitude": 117.15139188884798
    },
    {
        "location": "区政府    晓风印月公寓 距1号线-滨和路757m",
        "latitude": 40.15606203259834,
        "longitude": 116.66728400036311
    },
    {
        "location": "大江东    兴耀湖境观岚湾 距7号线-启成路1272m",
        "latitude": 22.554770664607698,
        "longitude": 114.10155636426167
    },
    {
        "location": "中山北路    城西环路拓改工程南二区",
        "latitude": 24.927094789443036,
        "longitude": 118.59519061874906
    },
    {
        "location": "堆龙德庆    堆龙德庆",
        "latitude": 29.651625675009356,
        "longitude": 91.00996313420868
    },
    {
        "location": "活力岛    发现岛汇萃商业广场 距4号线-活力岛832m",
        "latitude": 31.380859390382646,
        "longitude": 120.6064237294462
    },
    {
        "location": "淞宝    宝钢五村 距3号线-友谊路951m",
        "latitude": 31.395758196414494,
        "longitude": 121.50480775132573
    },
    {
        "location": "开发区    明怡花苑 距7号线-明星路1034m",
        "latitude": 35.804963883185884,
        "longitude": 114.99633702802856
    },
    {
        "location": "布达拉宫广场    东城金座",
        "latitude": 39.93482727239599,
        "longitude": 116.4224009776628
    },
    {
        "location": "鱼化寨    鸿锦城天逸 距西安高新云巴线-鱼化寨1332m",
        "latitude": 34.23438167675604,
        "longitude": 108.85377578302725
    },
    {
        "location": "九宫庙    中冶城邦国际 距2号线-新山村1782m",
        "latitude": 29.4823118412674,
        "longitude": 106.49057471988651
    },
    {
        "location": "八匹马    富力新天地 距2号线-观山西路719m",
        "latitude": 23.131151797575086,
        "longitude": 113.39270752894701
    },
    {
        "location": "南汇周边    远星铂雅华庭 距16号线-临港大道882m",
        "latitude": 31.06285224949284,
        "longitude": 121.79462689021275
    },
    {
        "location": "工农大街    润园翡翠城 距3号线-工农大街1321m",
        "latitude": 45.73012605448956,
        "longitude": 126.57772580402082
    },
    {
        "location": "柯木塱    柯木塱背坪社下东街小区 距6号线-柯木塱176m",
        "latitude": 23.200689879269717,
        "longitude": 113.40427491916464
    },
    {
        "location": "拉萨火车站    顺通冈仁国际",
        "latitude": 29.628349680141007,
        "longitude": 91.09024317048952
    },
    {
        "location": "绿岛湖    绿岛映月湾花园",
        "latitude": 30.390452979511394,
        "longitude": 103.4974403559655
    },
    {
        "location": "黄河大道    中山尚郡 距1号线-留村1002m",
        "latitude": 22.5223146707905,
        "longitude": 113.39942236263188
    },
    {
        "location": "平湖    融湖中心城(二期) 距10号线-禾花站728m",
        "latitude": 30.682240998057836,
        "longitude": 121.02257525525401
    },
    {
        "location": "吴门桥    东大街241号小区 距5号线-南门站545m",
        "latitude": 28.174878634729424,
        "longitude": 113.03531596327593
    },
    {
        "location": "城关    城关",
        "latitude": 36.0631814753695,
        "longitude": 103.83147490052859
    },
    {
        "location": "城关    罗堆中路",
        "latitude": 29.655591497678667,
        "longitude": 91.08467062209075
    },
    {
        "location": "电视塔    华城国际 距2号线-三爻834m",
        "latitude": 24.06855845291052,
        "longitude": 115.63236579009241
    },
    {
        "location": "大石坝    首创鸿恩国际生活区(三期... 距5号线-大石坝979m",
        "latitude": 29.57628040080443,
        "longitude": 106.50026303463899
    },
    {
        "location": "三森国际家俱城    启航029小区 距2号线-三爻703m",
        "latitude": 23.319370992623988,
        "longitude": 113.33294011931865
    },
    {
        "location": "进港大道    乐昌一二三街自建房 距4号线-大涌680m",
        "latitude": 25.135591561194918,
        "longitude": 113.35457868209694
    },
    {
        "location": "科技路西口    都市春天 距3号线-丈八北路761m",
        "latitude": 30.114235152277878,
        "longitude": 119.17770259211345
    },
    {
        "location": "乐松    南郡凤凰湾 距3号线-肿瘤医院1695m",
        "latitude": 30.242041098117458,
        "longitude": 120.26247000561138
    },
    {
        "location": "纸坊    万科保利联投理想星光",
        "latitude": 33.73069056927395,
        "longitude": 105.49379948742562
    },
    {
        "location": "同乐    中海寰宇珑宸 距14号线-宝龙站1903m",
        "latitude": 32.253483429739,
        "longitude": 118.36657942848989
    },
    {
        "location": "九二路    玉浦花苑(一期)",
        "latitude": 23.459769209297733,
        "longitude": 116.40461550116099
    },
    {
        "location": "布达拉宫广场    德吉花园",
        "latitude": 41.16511618909607,
        "longitude": 121.34572422347776
    },
    {
        "location": "丈八北路    鱼化雅苑 距3号线-鱼化寨1383m",
        "latitude": 34.28535142725812,
        "longitude": 108.82625781067898
    },
    {
        "location": "容桂    龙光尚街",
        "latitude": null,
        "longitude": null
    },
    {
        "location": "黄河大道    赵村新村小区 距1号线-留村1283m",
        "latitude": 31.332681019934736,
        "longitude": 121.18231921731292
    },
    {
        "location": "拉萨火车站    锦庭苑世纪城",
        "latitude": 29.671537311361973,
        "longitude": 90.97403199178802
    },
    {
        "location": "沙井    星河荣御 距11号线-马安山1887m",
        "latitude": 28.702111926799503,
        "longitude": 115.863089361946
    },
    {
        "location": "布达拉宫广场    八一北路当巴社区16号院",
        "latitude": 41.16511618909607,
        "longitude": 121.34572422347776
    },
    {
        "location": "车陂    阳华国花苑 距21号线-棠东1947m",
        "latitude": 23.119957617821548,
        "longitude": 113.40644792019255
    },
    {
        "location": "九一路    国泰观邸",
        "latitude": 34.81681168754865,
        "longitude": 113.69828053559957
    },
    {
        "location": "布达拉宫广场    东城金座",
        "latitude": 39.93482727239599,
        "longitude": 116.4224009776628
    },
    {
        "location": "南口    金隅旺合园",
        "latitude": 40.52905705710416,
        "longitude": 81.285615734742
    },
    {
        "location": "钱江世纪城    阳光城檀悦 距7号线-兴议1556m",
        "latitude": 26.60990794597814,
        "longitude": 106.63966199380076
    },
    {
        "location": "布达拉宫广场    尼吉苑小区",
        "latitude": 41.16511618909607,
        "longitude": 121.34572422347776
    },
    {
        "location": "会展城    中天金融城A10组团学海... 距1号线-阳关1331m",
        "latitude": 30.243064762160113,
        "longitude": 104.85069448808281
    },
    {
        "location": "金融高新区    千灯湖C+ 距广佛线-千灯湖652m",
        "latitude": 39.68181097563757,
        "longitude": 118.1863173601081
    },
    {
        "location": "布达拉宫广场    晨曦花园(一期)",
        "latitude": 41.16511618909607,
        "longitude": 121.34572422347776
    },
    {
        "location": "布达拉宫广场    兴宝公寓",
        "latitude": 41.16511618909607,
        "longitude": 121.34572422347776
    },
    {
        "location": "大石    洪昌工业路自建房 距3号线-大石823m",
        "latitude": 22.929324858552793,
        "longitude": 113.09608803778634
    },
    {
        "location": "泛亚科技新区    西城林语华郡苑 距4号线-大河梗站550m",
        "latitude": 39.91812360584148,
        "longitude": 116.37251358116619
    },
    {
        "location": "空港新城    爱加欧郡(2期) 距10号线-鹿山1282m",
        "latitude": 40.111317977255055,
        "longitude": 116.55039765520193
    },
    {
        "location": "祈福    祈福缤纷汇 距22号线-市广路785m",
        "latitude": 22.97853548274284,
        "longitude": 113.3382957269368
    },
    {
        "location": "荔城    创基丽江国际(一期-二期... 距21号线-增城广场1223m",
        "latitude": 25.43975447880629,
        "longitude": 119.01948169064262
    },
    {
        "location": "白云公园    东方广场 距2号线-白云中路17m",
        "latitude": 23.188692433800064,
        "longitude": 113.2777499355843
    },
    {
        "location": "果园新村    旭日里",
        "latitude": 39.22442359090396,
        "longitude": 117.14340065286177
    },
    {
        "location": "电视塔    名城雅居 距2号线-电视塔583m",
        "latitude": 31.062141085248943,
        "longitude": 121.3991072860359
    },
    {
        "location": "滇池路片区    岚福苑 距5号线-广福路西口1298m",
        "latitude": 34.015759132808405,
        "longitude": 108.75259918428566
    },
    {
        "location": "莲花片区    云南省招考院家属区 距4号线-小菜园站764m",
        "latitude": 24.884725037412892,
        "longitude": 102.8207320720356
    },
    {
        "location": "鼓楼片区    昆明桃园新村 距2号线-穿心鼓楼449m",
        "latitude": 25.06013173413451,
        "longitude": 102.72355598708425
    },
    {
        "location": "之江度假区    钱塘湾 距6号线-之江文化中心站1809m",
        "latitude": 30.307422877692797,
        "longitude": 120.33145825182777
    },
    {
        "location": "空港    空港圣地 距3号线-空港广场512m",
        "latitude": 29.74065560229628,
        "longitude": 106.64265164436753
    },
    {
        "location": "老余杭    大华海派风范茗园 距5号线-金星1831m",
        "latitude": 31.112648996870185,
        "longitude": 121.06100512429308
    },
    {
        "location": "北滨路    国兴北岸江山(东区) 距9号线-李家坪682m",
        "latitude": 29.56433671470297,
        "longitude": 106.51960418107628
    },
    {
        "location": "布达拉宫广场    德康鑫居",
        "latitude": 41.16511618909607,
        "longitude": 121.34572422347776
    },
    {
        "location": "道里周边    民安小区(道里) 距1号线-西大桥1252m",
        "latitude": 33.01137317146153,
        "longitude": 112.57084953919404
    },
    {
        "location": "电子城    北沈新世纪(南区) 距8号线-山门口站1269m",
        "latitude": 34.19825481141029,
        "longitude": 108.90300157751577
    },
    {
        "location": "南岸区政府    鲁能领秀城一街区(商住楼... 距6号线-茶园1784m",
        "latitude": 29.499029252740552,
        "longitude": 106.63743895715595
    },
    {
        "location": "千灯湖    万科金色领域(商住楼) 距广佛线-礌岗479m",
        "latitude": 31.389377403569366,
        "longitude": 121.22579738365695
    },
    {
        "location": "师大    警苑社区 距2号线-阳明祠191m",
        "latitude": 31.167917854112982,
        "longitude": 121.42530995945646
    },
    {
        "location": "拱墅三墩    都市水乡水滟苑 距2号线-墩祥街643m",
        "latitude": 30.33871166045002,
        "longitude": 120.09906077741066
    },
    {
        "location": "康桥    康和嘉苑 距4号线-平安桥1184m",
        "latitude": 40.07909807267312,
        "longitude": 116.44173197325422
    },
    {
        "location": "钱江世纪城    山水时代大厦 距2号线-钱江世纪城598m",
        "latitude": 26.60990794597814,
        "longitude": 106.63966199380076
    },
    {
        "location": "铜梁城区    东宏时代广场",
        "latitude": 23.08816223145329,
        "longitude": 113.2962851223183
    },
    {
        "location": "花果园    花果园C区 距3号线-花果园505m",
        "latitude": 30.706157357809133,
        "longitude": 104.07821849360116
    },
    {
        "location": "布达拉宫广场    嘎玛贡桑住宅区",
        "latitude": 29.657253391022504,
        "longitude": 91.15611878809207
    },
    {
        "location": "光明    龙光玖龙台(商住楼) 距6号线-凤凰城站478m",
        "latitude": 22.750382015120227,
        "longitude": 113.9422959601114
    },
    {
        "location": "长河    长兴苑小区 距5号线-聚才路1167m",
        "latitude": 31.38824192933789,
        "longitude": 121.7178128758851
    },
    {
        "location": "三棵树    北树小区 距1号线-哈尔滨东站1120m",
        "latitude": 33.88210526242402,
        "longitude": 118.2721553922668
    },
    {
        "location": "西山区政府    昆钢铁合金厂宿舍 距3号线-西部汽车站773m",
        "latitude": 25.0451810089669,
        "longitude": 102.66401198603616
    },
    {
        "location": "城东    润柏大都会(商住楼)",
        "latitude": 36.61197784706617,
        "longitude": 101.8161126549882
    },
    {
        "location": "经济开发区    云大知城3期牛津花园 距4号线-羊甫头站1497m",
        "latitude": 27.44156733215448,
        "longitude": 112.16743444425771
    },
    {
        "location": "桐庐城区    滨江嘉品美寓",
        "latitude": 30.214332950144062,
        "longitude": 120.21847118139375
    },
    {
        "location": "布达拉宫广场    八一社区",
        "latitude": 27.626863325206187,
        "longitude": 113.85311218911025
    },
    {
        "location": "布达拉宫广场    海升公寓",
        "latitude": 41.16511618909607,
        "longitude": 121.34572422347776
    },
    {
        "location": "布达拉宫广场    顺通城市花园",
        "latitude": 41.16511618909607,
        "longitude": 121.34572422347776
    },
    {
        "location": "京溪    广信春兰花园 距3号线(北延段)-京溪南方医院279m",
        "latitude": 22.983796949534813,
        "longitude": 113.32574424303334
    },
    {
        "location": "汽博中心    汇祥幸福里",
        "latitude": 29.648292570114712,
        "longitude": 106.57927394489575
    },
    {
        "location": "长安医院    恒隆香樟园 距8号线-市图书馆站1024m",
        "latitude": 31.047318863258397,
        "longitude": 121.76974903775832
    },
    {
        "location": "铜元局    金辉城花样派 距3号线-铜元局1247m",
        "latitude": 29.53337512732277,
        "longitude": 106.54668593625995
    },
    {
        "location": "雁环中路    联盟新城",
        "latitude": 34.79202453155224,
        "longitude": 113.73009878625463
    },
    {
        "location": "东方广场    旭辉公元",
        "latitude": 43.887267083424334,
        "longitude": 125.43554751541559
    },
    {
        "location": "花果园    花果园一期(商住楼) 距3号线-松花路388m",
        "latitude": 30.706157357809133,
        "longitude": 104.07821849360116
    },
    {
        "location": "同心路    云城苑北区",
        "latitude": 31.02273500357388,
        "longitude": 121.242087435436
    },
    {
        "location": "钱江世纪城    滨江观品 距6号线-博览中心站454m",
        "latitude": 30.214332950144062,
        "longitude": 120.21847118139375
    },
    {
        "location": "布达拉宫广场    琅赛花园十区",
        "latitude": 41.16511618909607,
        "longitude": 121.34572422347776
    },
    {
        "location": "石路    利景华庭 距2号线-广济南路342m",
        "latitude": 31.00305542400317,
        "longitude": 104.04233325458021
    },
    {
        "location": "新街    虹云之城 距5号线-姑娘桥775m",
        "latitude": 30.178107231355934,
        "longitude": 120.34798599524474
    },
    {
        "location": "平湖    威凤山庄 距10号线-双拥街站1734m",
        "latitude": 30.682240998057836,
        "longitude": 121.02257525525401
    },
    {
        "location": "布达拉宫广场    翠湖文景居",
        "latitude": 41.16511618909607,
        "longitude": 121.34572422347776
    },
    {
        "location": "大营坡    天誉城 距1号线-南垭路786m",
        "latitude": 26.667281748641294,
        "longitude": 106.18427643601177
    },
    {
        "location": "布达拉宫广场    世邦春天花园",
        "latitude": 41.16511618909607,
        "longitude": 121.34572422347776
    },
    {
        "location": "弹子石    康田龙腾湾",
        "latitude": 29.59762234138185,
        "longitude": 106.61057234614185
    },
    {
        "location": "盐田    佳兆业西山吓庭苑 距8号线-洪安围站755m",
        "latitude": 22.592810515576634,
        "longitude": 114.26598642678961
    },
    {
        "location": "双阳街道    南益刺桐春晓",
        "latitude": 24.984155798566363,
        "longitude": 118.65688300725412
    },
    {
        "location": "北二环西段    荣城名苑 距8号线-大风阁站1192m",
        "latitude": 31.692975973201513,
        "longitude": 120.28101022286236
    },
    {
        "location": "新螺蛳湾    万科公园里(二期) 距1号线-南部汽车站1144m",
        "latitude": 24.96550968275435,
        "longitude": 102.78661972878042
    },
    {
        "location": "桥南片区    万科金域滨江(二期)",
        "latitude": 46.80766769805838,
        "longitude": 130.3713399506807
    },
    {
        "location": "江汉周边    焕英里 距1号线-友谊路338m",
        "latitude": 30.585410371672243,
        "longitude": 114.28597760193418
    },
    {
        "location": "大沥    广佛智城天街",
        "latitude": 23.123668038961373,
        "longitude": 113.15066872123238
    },
    {
        "location": "镜湖大道    绿地空港国际中心 距9号线-清塘1212m",
        "latitude": 23.374006074596977,
        "longitude": 113.26911973489169
    },
    {
        "location": "里水    时代家(商住楼)",
        "latitude": 23.186468282822783,
        "longitude": 113.15994507307808
    },
    {
        "location": "南湖新区    华颐春天 距2号线-云峰大道506m",
        "latitude": 26.679527184496713,
        "longitude": 106.62972996876353
    },
    {
        "location": "布达拉宫广场    德康鑫居",
        "latitude": 41.16511618909607,
        "longitude": 121.34572422347776
    },
    {
        "location": "火车站    春江花月 距3号线-西三教1255m",
        "latitude": 37.321127677461426,
        "longitude": 97.3911088501482
    },
    {
        "location": "五大花园    双景秀庭 距7号线-龙爪堰622m",
        "latitude": 45.252994440815336,
        "longitude": 130.1575312918413
    },
    {
        "location": "渝北黄泥磅    紫荆商业广场 距6号线-黄泥塝326m",
        "latitude": 29.5942801295232,
        "longitude": 106.54758675702504
    },
    {
        "location": "大学城    北麓国际城(A区)",
        "latitude": 29.59383707333217,
        "longitude": 106.32088022774963
    },
    {
        "location": "郭杜    挚信樱花园",
        "latitude": 34.166041593589824,
        "longitude": 108.88858080967243
    },
    {
        "location": "盘龙    盘龙金茂悦(商住楼) 距2号线-大堰村1409m",
        "latitude": 25.069318033622885,
        "longitude": 102.73593885904357
    },
    {
        "location": "鱼洞    华熙LIVE023(商住... 距2号线-鱼洞231m",
        "latitude": 27.461011717589816,
        "longitude": 105.15850990840914
    },
    {
        "location": "市南路口    南岳路5号小区 距2号线-贵钢1502m",
        "latitude": 31.700442461751415,
        "longitude": 121.0803817538044
    },
    {
        "location": "布达拉宫广场    西藏阳光都市",
        "latitude": 41.16511618909607,
        "longitude": 121.34572422347776
    },
    {
        "location": "布达拉宫广场    那曲客运公司驻拉萨退休基...",
        "latitude": 31.475741799723668,
        "longitude": 92.05175813451636
    },
    {
        "location": "曲江四小    裴家埪村安置小区",
        "latitude": 24.688407846380294,
        "longitude": 113.61150106464875
    },
    {
        "location": "西溪    西溪新城市 距19号线-西溪湿地北站1174m",
        "latitude": 34.272724469532555,
        "longitude": 108.96739103850439
    },
    {
        "location": "南屏街片区    青年路357号小区 距2号线-东风广场297m",
        "latitude": 34.015759132808405,
        "longitude": 108.75259918428566
    },
    {
        "location": "布达拉宫广场    蜀园(西区)",
        "latitude": 24.14878739174072,
        "longitude": 120.67644156464537
    },
    {
        "location": "辛家庙    天香心苑 距3号线-辛家庙354m",
        "latitude": 34.32731772535735,
        "longitude": 109.02736155502829
    },
    {
        "location": "中央公园    新城朗隽大都会二期璟誉 距9号线-兰桂大道462m",
        "latitude": 40.08196959964644,
        "longitude": 116.25386772500262
    },
    {
        "location": "花果园    花果园R区1区 距3号线-五里冲745m",
        "latitude": 26.570062524642587,
        "longitude": 106.67867953429156
    },
    {
        "location": "南滨路    东原锦悦 距3号线-南坪909m",
        "latitude": 39.70773634642217,
        "longitude": 116.32962623035606
    },
    {
        "location": "拉萨火车站    顿珠金融城融晖园",
        "latitude": 29.641159087347475,
        "longitude": 91.10190236753022
    },
    {
        "location": "大商汇    万达广场国际公寓",
        "latitude": 24.987809580206612,
        "longitude": 102.71448696415018
    },
    {
        "location": "浮桥    中骏四季阳光(商住楼)",
        "latitude": 24.91391332529145,
        "longitude": 118.56121167386206
    },
    {
        "location": "沙河    高教大楼 距昌平线-沙河高教园1460m",
        "latitude": 36.91064259678563,
        "longitude": 114.55348687432814
    },
    {
        "location": "临平北    咏翠芳华轩 距9号线-五洲路站716m",
        "latitude": 30.42321349473682,
        "longitude": 120.32200969481272
    },
    {
        "location": "汽博中心    奥林匹克花园红城 距3号线-金渝1345m",
        "latitude": 29.648292570114712,
        "longitude": 106.57927394489575
    },
    {
        "location": "赵陵铺    康太家园",
        "latitude": 38.106043550432624,
        "longitude": 114.45899923807497
    },
    {
        "location": "临平北    顺达花苑东区 距9号线-荷禹路站708m",
        "latitude": 30.440266801707278,
        "longitude": 120.2845238550341
    },
    {
        "location": "布达拉宫广场    阳光花园",
        "latitude": 41.16511618909607,
        "longitude": 121.34572422347776
    },
    {
        "location": "金沙洲    万益广场(一三期)",
        "latitude": 30.01780285777434,
        "longitude": 106.00752019670803
    },
    {
        "location": "丁桥    龙湖名景台(公寓住宅) 距3号线-同协路471m",
        "latitude": 40.03244772529112,
        "longitude": 116.44446533726
    },
    {
        "location": "高新区    鑫金花园(昌源北路) 距4号线-海屯路站1907m",
        "latitude": 30.586452710935603,
        "longitude": 104.03603182108881
    },
    {
        "location": "学府大道    万友七季城(B区) 距3号线-六公里669m",
        "latitude": 29.506260664604923,
        "longitude": 106.5743653340992
    },
    {
        "location": "市政府    滇池明珠广场 距1号线-驼峰街480m",
        "latitude": 40.15606203259834,
        "longitude": 116.66728400036311
    },
    {
        "location": "夏园    万科黄埔新城 距13号线-夏园1733m",
        "latitude": 23.08943525024118,
        "longitude": 113.52477936938854
    },
    {
        "location": "花果园    花果园B北区 距3号线-松花路451m",
        "latitude": 26.570062524642587,
        "longitude": 106.67867953429156
    },
    {
        "location": "红旗河沟    帝豪丽都(江北) 距3号线-红旗河沟544m",
        "latitude": 35.274944500346095,
        "longitude": 113.90947431692861
    },
    {
        "location": "布达拉宫广场    世邦拉萨印象",
        "latitude": 29.65408878639459,
        "longitude": 91.07893018039223
    },
    {
        "location": "大商汇    盘龙雅苑六号苑 距5号线-金家河1851m",
        "latitude": 24.987809580206612,
        "longitude": 102.71448696415018
    },
    {
        "location": "星桥    永西洪福雅苑",
        "latitude": 22.566903409127935,
        "longitude": 113.89991112141755
    },
    {
        "location": "五桥    乐居苑",
        "latitude": 30.774625829174116,
        "longitude": 108.46580760445892
    },
    {
        "location": "布达拉宫广场    哈达幸福小区",
        "latitude": 45.13145986067662,
        "longitude": 124.86526460812723
    },
    {
        "location": "南安市区    保利香槟公馆",
        "latitude": 24.970246122274176,
        "longitude": 118.421611314605
    },
    {
        "location": "拉萨火车站    天知雅砻阳光花园",
        "latitude": 29.631912077651055,
        "longitude": 91.07140696157921
    },
    {
        "location": "铁心桥    银杏山庄 距S3号线-铁心桥1354m",
        "latitude": 31.137841319283652,
        "longitude": 121.33198482036374
    },
    {
        "location": "新螺蛳湾    俊发澜湾俊园 距4号线-塔密站1042m",
        "latitude": 24.96550968275435,
        "longitude": 102.78661972878042
    },
    {
        "location": "八匹马    富力新天地 距2号线-观山西路719m",
        "latitude": 23.131151797575086,
        "longitude": 113.39270752894701
    },
    {
        "location": "布达拉宫广场    拉鲁桥自建房",
        "latitude": 41.16511618909607,
        "longitude": 121.34572422347776
    },
    {
        "location": "布达拉宫广场    顺通城市花园",
        "latitude": 41.16511618909607,
        "longitude": 121.34572422347776
    },
    {
        "location": "拉萨火车站    金马国际",
        "latitude": 29.624990680057984,
        "longitude": 91.08967238716865
    },
    {
        "location": "开发区    金珺澜庭(二区) 距2号线-建设三路1469m",
        "latitude": 35.804963883185884,
        "longitude": 114.99633702802856
    },
    {
        "location": "石湾    苹果公馆 距广佛线-季华园549m",
        "latitude": 27.29295373836466,
        "longitude": 112.9665329798913
    },
    {
        "location": "红旗    西美花街小区",
        "latitude": 35.310135512691105,
        "longitude": 113.88141583415499
    },
    {
        "location": "桥北    迎江雅居 距宁天线(S8)-长江大桥北站614m",
        "latitude": 30.523606587405695,
        "longitude": 117.08869106255703
    },
    {
        "location": "科技园    融创玖境国际(商住楼) 距1号线-新寨723m",
        "latitude": 39.95144483203103,
        "longitude": 116.44412568794667
    },
    {
        "location": "新亚洲体育城    万景园 距1号线-星耀路1002m",
        "latitude": 24.95271919600373,
        "longitude": 102.77649061551435
    },
    {
        "location": "省二院    中华绿园 距3号线-市庄218m",
        "latitude": 43.895959109274344,
        "longitude": 125.30001504278381
    },
    {
        "location": "陈村    保利阅江台 距2号线-花卉世界1766m",
        "latitude": 34.4885221674803,
        "longitude": 107.2714219458505
    },
    {
        "location": "丁字沽街    风采里 距1号线-洪湖里1023m",
        "latitude": 39.173781136025724,
        "longitude": 117.16653920618779
    },
    {
        "location": "布达拉宫广场    西藏自治区政协第二生活区",
        "latitude": 41.16511618909607,
        "longitude": 121.34572422347776
    },
    {
        "location": "金融高新区    万科金域中央(商住楼) 距广佛线-金融高新区1771m",
        "latitude": 39.68181097563757,
        "longitude": 118.1863173601081
    },
    {
        "location": "黄河大道    中山尚郡 距1号线-留村1002m",
        "latitude": 22.5223146707905,
        "longitude": 113.39942236263188
    },
    {
        "location": "五角场    怡福苑 距10号线-国权路968m",
        "latitude": 31.309473543606742,
        "longitude": 121.53290935276381
    },
    {
        "location": "西南    恒福丽铂公馆",
        "latitude": 23.10584585262964,
        "longitude": 113.22866382761877
    },
    {
        "location": "横泾    WE加社区腾讯智慧公寓P...",
        "latitude": 31.17392387838608,
        "longitude": 120.5419215311161
    },
    {
        "location": "松北新区    军安绿色家园 距2号线-龙川路744m",
        "latitude": 30.551582337542943,
        "longitude": 104.098123596244
    },
    {
        "location": "医大一院    铁岭街79号小区 距1号线-医大一院260m",
        "latitude": 41.665666621507036,
        "longitude": 123.4326419825515
    },
    {
        "location": "西湖三墩    银城天境福邸(商业) 距2号线-白洋1130m",
        "latitude": 30.350112876864088,
        "longitude": 120.07082577760433
    },
    {
        "location": "沙河    顺沙路19号院3区 距昌平线-沙河1553m",
        "latitude": 41.15697785692758,
        "longitude": 123.04172448733283
    },
    {
        "location": "北市区    俊发龙泉俊园 距2号线-羊肠村1858m",
        "latitude": 23.093129653411445,
        "longitude": 113.30301459838299
    },
    {
        "location": "城关    城关",
        "latitude": 36.0631814753695,
        "longitude": 103.83147490052859
    },
    {
        "location": "花果园    花果园S2区 距3号线-五里冲889m",
        "latitude": 30.706157357809133,
        "longitude": 104.07821849360116
    },
    {
        "location": "大坪    袁家岗居住区 距2号线-袁家岗718m",
        "latitude": 29.535762832726796,
        "longitude": 106.52355367108014
    },
    {
        "location": "安海    上悦城",
        "latitude": 24.72299352442274,
        "longitude": 118.48286119781599
    },
    {
        "location": "万达    万达广场C区 距1号线-北宋1875m",
        "latitude": 31.330109859725926,
        "longitude": 121.45351702196142
    },
    {
        "location": "季华六路    星星凯旋国际花园(北区) 距3号线-镇安443m",
        "latitude": 23.020284553776346,
        "longitude": 113.15519636066226
    },
    {
        "location": "布达拉宫广场    德康鑫居",
        "latitude": 41.16511618909607,
        "longitude": 121.34572422347776
    },
    {
        "location": "金泘沱    中海凯旋门 距4号线-金滹沱529m",
        "latitude": 39.92297763515666,
        "longitude": 116.39409034053254
    },
    {
        "location": "丈八西路    美寓华庭 距西安高新云巴线-东滩770m",
        "latitude": 39.73937319176852,
        "longitude": 116.18726007821822
    },
    {
        "location": "新螺蛳湾    国际银座 距4号线-玉缘路站682m",
        "latitude": 24.96550968275435,
        "longitude": 102.78661972878042
    },
    {
        "location": "万博    锦绣香江布查特官邸三期 距7号线-汉溪长隆1176m",
        "latitude": 22.561019317240294,
        "longitude": 113.94979205009803
    },
    {
        "location": "金沙洲    时代天境",
        "latitude": 30.706543852775024,
        "longitude": 104.0356747446486
    },
    {
        "location": "棕树营    北大资源博泰城 距3号线-市体育馆397m",
        "latitude": 25.04474382216746,
        "longitude": 102.69323637952151
    },
    {
        "location": "百家湖    诚基名苑(商住楼) 距1号线-百家湖664m",
        "latitude": 39.12327234467843,
        "longitude": 117.20878283126946
    },
    {
        "location": "月牙湖    银龙花园(三期)",
        "latitude": 32.00977952233249,
        "longitude": 118.86676662628116
    },
    {
        "location": "乐从    泰禾佛山院子 距广佛线-新城东1071m",
        "latitude": 22.96418785602284,
        "longitude": 113.09569556810916
    },
    {
        "location": "科技六路    高新水晶岛 距8号线-木塔寺西站注536m",
        "latitude": 34.290565890774104,
        "longitude": 108.93001586996458
    },
    {
        "location": "凯旋/采荷    居安坊 距4号线-城星路943m",
        "latitude": 39.88303978161165,
        "longitude": 116.65201586093221
    },
    {
        "location": "布达拉宫广场    泽巴姆家园公寓",
        "latitude": 41.16511618909607,
        "longitude": 121.34572422347776
    },
    {
        "location": "江浦街道    正荣润锦城",
        "latitude": 32.07681938153722,
        "longitude": 118.67909883744458
    },
    {
        "location": "勒流    龙光玖龙府(勒流)",
        "latitude": 22.855805913225794,
        "longitude": 113.1442231995393
    },
    {
        "location": "华岩新城    财信新界(商住楼) 距直快列车-金建路213m",
        "latitude": 29.445483501413406,
        "longitude": 106.44884447641758
    },
    {
        "location": "农业园区    金鹏两江时光 距9号线-宝圣湖1643m",
        "latitude": 42.66037494317727,
        "longitude": 128.11242705884513
    },
    {
        "location": "市图书馆    刚家寨A地块1-2号楼 距8号线-市图书馆站525m",
        "latitude": 34.32620402352119,
        "longitude": 108.95513303100687
    },
    {
        "location": "北站    电大街院",
        "latitude": null,
        "longitude": null
    },
    {
        "location": "江浦街道    江山大境 距10号线-雨山路1529m",
        "latitude": 32.06287188453919,
        "longitude": 118.62646478202065
    },
    {
        "location": "绿岛湖    华宝世家雅苑",
        "latitude": 23.011757141225868,
        "longitude": 113.04839097963045
    },
    {
        "location": "高柱    橙悦园 距3号线-柏林庄377m",
        "latitude": 38.07881225541794,
        "longitude": 114.48275807135562
    },
    {
        "location": "布达拉宫广场    哈达滨河花园(东区)",
        "latitude": 41.79034308241782,
        "longitude": 123.46597801019622
    },
    {
        "location": "泥城    丽都华庭",
        "latitude": 30.90826150591845,
        "longitude": 121.81401834176499
    },
    {
        "location": "堆龙德庆    堆龙德庆",
        "latitude": 29.651625675009356,
        "longitude": 91.00996313420868
    },
    {
        "location": "罗泾    罗宁欣苑",
        "latitude": 31.489225947335576,
        "longitude": 121.3306829960187
    },
    {
        "location": "佘山    佘北家园康桂苑",
        "latitude": 31.134696830914375,
        "longitude": 121.21771047813395
    },
    {
        "location": "未来科技城    北大资源未名府(公寓住宅... 距5号线-五常650m",
        "latitude": 34.04230417943648,
        "longitude": 113.83233805875409
    },
    {
        "location": "拉萨火车站    世邦金色两岸",
        "latitude": 29.63596783969224,
        "longitude": 91.02556858735339
    },
    {
        "location": "五里店    蓝色经典小区 距环线-渝鲁1006m",
        "latitude": 29.60014197906707,
        "longitude": 106.57076214086932
    },
    {
        "location": "拉萨火车站    圣地财富广场",
        "latitude": 29.637407098361823,
        "longitude": 91.08554305640176
    },
    {
        "location": "金融高新区    保利维塔二期",
        "latitude": 39.68181097563757,
        "longitude": 118.1863173601081
    },
    {
        "location": "世纪城    万科悦城 距2号线-茶园1233m",
        "latitude": 26.60990794597814,
        "longitude": 106.63966199380076
    },
    {
        "location": "知识城    合景天峻 距14号线(知识城线)-旺村604m",
        "latitude": 23.328462988042503,
        "longitude": 113.53827101983842
    },
    {
        "location": "万达广场    万达华府B区",
        "latitude": 39.912079085025304,
        "longitude": 116.23189795697564
    },
    {
        "location": "群力    恒祥空间 距3号线-群力第五大道1613m",
        "latitude": 30.304217084576504,
        "longitude": 105.84792149065008
    },
    {
        "location": "人和    万科缇香郡 距5号线-人和437m",
        "latitude": 29.63310260222568,
        "longitude": 106.54354546019809
    },
    {
        "location": "同和    星汇云城",
        "latitude": 23.214296417617128,
        "longitude": 113.34343098021345
    },
    {
        "location": "丰庆公园    西桃园小区 距5号线-丰庆公园615m",
        "latitude": 43.6648786567875,
        "longitude": 124.95507255407415
    },
    {
        "location": "浒墅关    阳山花苑(五区)",
        "latitude": 31.379606584912004,
        "longitude": 120.49291797741074
    },
    {
        "location": "布达拉宫广场    堆龙德庆县退休基地",
        "latitude": 29.651625675009356,
        "longitude": 91.00996313420868
    },
    {
        "location": "西永    西著七里二组团(商住楼) 距1号线-微电园1201m",
        "latitude": 29.619333983165518,
        "longitude": 106.36252899490884
    },
    {
        "location": "堆龙德庆    堆龙德庆",
        "latitude": 29.651625675009356,
        "longitude": 91.00996313420868
    },
    {
        "location": "蠡口    书香苑(相城) 距2号线-蠡口521m",
        "latitude": 31.405316891279426,
        "longitude": 120.6217869994306
    },
    {
        "location": "平湖    白虎头小区 距10号线-禾花站1729m",
        "latitude": 30.682240998057836,
        "longitude": 121.02257525525401
    },
    {
        "location": "志华商城    志华商城 距2号线-江北大学城692m",
        "latitude": 45.876316048717335,
        "longitude": 126.55677633139193
    },
    {
        "location": "拉萨火车站    拉萨铁路小区",
        "latitude": 29.63233400953728,
        "longitude": 91.08269596691937
    },
    {
        "location": "世纪城    探春苑 距1号线-珥季路1659m",
        "latitude": 39.95937024328548,
        "longitude": 116.28668677782635
    },
    {
        "location": "布达拉宫广场    文君缘出租房六区",
        "latitude": 30.410688827287494,
        "longitude": 103.47119896557747
    },
    {
        "location": "巫家坝    万科公园城市(二期)",
        "latitude": 30.597274618375135,
        "longitude": 103.5673535873655
    },
    {
        "location": "大营坡    天誉城 距1号线-南垭路786m",
        "latitude": 26.667281748641294,
        "longitude": 106.18427643601177
    },
    {
        "location": "乐松    凯旋广场(商住楼)",
        "latitude": 30.242041098117458,
        "longitude": 120.26247000561138
    },
    {
        "location": "布达拉宫广场    嘎吉四区",
        "latitude": 26.456655442604365,
        "longitude": 102.63100860093266
    },
    {
        "location": "布达拉宫广场    顺通城市花园",
        "latitude": 41.16511618909607,
        "longitude": 121.34572422347776
    },
    {
        "location": "蜀山    昱泊名府(公寓住宅)",
        "latitude": 31.85836377935724,
        "longitude": 117.0587659009337
    },
    {
        "location": "临安城区    北樾府 距16号线-临安广场1818m",
        "latitude": 40.14572174386764,
        "longitude": 117.12066049802945
    },
    {
        "location": "建华    河纺小区(北区) 距1号线-北宋254m",
        "latitude": 47.360554871046276,
        "longitude": 123.96135010108006
    },
    {
        "location": "前卫营    润城(7区)",
        "latitude": 25.008492430145942,
        "longitude": 102.71667020586091
    },
    {
        "location": "兴关    碧桂园星作 距1号线-贵阳火车站730m",
        "latitude": 40.32066299955368,
        "longitude": 116.66153475526869
    },
    {
        "location": "会展城    中天会展城SOHO公寓 距1号线-国际生态会议中心935m",
        "latitude": 30.243064762160113,
        "longitude": 104.85069448808281
    },
    {
        "location": "礼嘉    龙湖两江新宸森屿(商住楼... 距6号线-金山寺845m",
        "latitude": 29.680102632100947,
        "longitude": 106.5096000221066
    },
    {
        "location": "金融高新区    万科金域中央(商住楼) 距广佛线-金融高新区1771m",
        "latitude": 39.68181097563757,
        "longitude": 118.1863173601081
    },
    {
        "location": "上坊    祈泽佳苑",
        "latitude": 28.688331376304408,
        "longitude": 117.03865210617113
    },
    {
        "location": "龚家寨    龚西路小区 距2号线-白云中路1975m",
        "latitude": 26.693386862607003,
        "longitude": 106.65448690928812
    },
    {
        "location": "潼南城区    云廷檀香山",
        "latitude": 31.367876717300486,
        "longitude": 120.98425839304811
    },
    {
        "location": "哈西    辰能溪树庭院(南区) 距3号线-哈西大街782m",
        "latitude": 45.71526089145673,
        "longitude": 126.5982048340541
    },
    {
        "location": "明光南路    合悦华府二期",
        "latitude": 34.38163421030629,
        "longitude": 108.8892206726872
    },
    {
        "location": "珠江路    电车小区(香坊) 距2号线-珠江路693m",
        "latitude": 36.05238815574124,
        "longitude": 120.22904639317942
    },
    {
        "location": "陈家祠    和安街小区 距1号线-陈家祠663m",
        "latitude": 20.638979971490322,
        "longitude": 110.386908171433
    },
    {
        "location": "怀特    怀特华堂聚瑞二期 距2号线-槐中路1550m",
        "latitude": 30.862767910954112,
        "longitude": 104.43164700497192
    },
    {
        "location": "铁机路    东湖景园C区 距4号线-铁机路637m",
        "latitude": 30.591368131145206,
        "longitude": 114.381950406687
    },
    {
        "location": "未来方舟    中天甜蜜小镇5组团",
        "latitude": 30.243064762160113,
        "longitude": 104.85069448808281
    },
    {
        "location": "西渡    文泽苑 距5号线-西渡954m",
        "latitude": 30.996125071139172,
        "longitude": 121.44623823207517
    },
    {
        "location": "临平    理想家园 距9号线-邱山大街站1900m",
        "latitude": 30.43074395735021,
        "longitude": 120.30375720481659
    },
    {
        "location": "金沙洲    恒大御景半岛",
        "latitude": 39.86084929296107,
        "longitude": 116.55951294087278
    },
    {
        "location": "林和    中怡城市花园 距APM线-林和西528m",
        "latitude": 23.149567052614582,
        "longitude": 113.33396822997447
    },
    {
        "location": "良渚    保利融信和光尘樾(商住楼... 距2号线-良渚274m",
        "latitude": 30.385969441723777,
        "longitude": 120.05360578258814
    },
    {
        "location": "郭杜    早安林庄 距6号线-仁村1255m",
        "latitude": 34.15737935908712,
        "longitude": 108.86226809382691
    },
    {
        "location": "北滨路    阳光城天澜道11号 距6号线-五里店730m",
        "latitude": 40.162528800823154,
        "longitude": 117.11393838806772
    },
    {
        "location": "兴隆    美丽嘉园 距2号线-兴隆大街622m",
        "latitude": 31.368545326273864,
        "longitude": 121.26412457637623
    },
    {
        "location": "金融高新区    A32万科里 距广佛线-金融高新区604m",
        "latitude": 39.68181097563757,
        "longitude": 118.1863173601081
    },
    {
        "location": "融汇    融汇半岛爱窝 距18号线-重庆理工大学1591m",
        "latitude": 39.68334602348123,
        "longitude": 116.32733860554434
    },
    {
        "location": "江都路街    靖江里 距5号线-幸福公园293m",
        "latitude": 31.03168258122544,
        "longitude": 121.77893915227816
    },
    {
        "location": "百花村    百花村社区 距4号线-百花村239m",
        "latitude": 31.156151102195874,
        "longitude": 103.99489778297306
    },
    {
        "location": "湘江道    融创臻园壹号",
        "latitude": 39.95144483203103,
        "longitude": 116.44412568794667
    },
    {
        "location": "大雁塔    后村嘉园 距3号线-大雁塔714m",
        "latitude": 39.84886488836161,
        "longitude": 116.37304753396131
    },
    {
        "location": "溧水区    顾家欧亚达商业广场 距S7号线-中山湖538m",
        "latitude": 31.65739995751265,
        "longitude": 119.05233202090218
    },
    {
        "location": "太行南大街    恒大绿洲",
        "latitude": 40.006759438318355,
        "longitude": 116.39001365046715
    },
    {
        "location": "大学城    富力院士廷(商住楼) 距1号线-陈家桥646m",
        "latitude": 23.157829113169957,
        "longitude": 113.3437319125592
    },
    {
        "location": "川师    望江锦园 距8号线-净居寺1248m",
        "latitude": 30.572567241710313,
        "longitude": 104.19994472918899
    },
    {
        "location": "天塔    体院宿舍 距5号线-肿瘤医院883m",
        "latitude": 39.09136715701856,
        "longitude": 117.19176497236624
    },
    {
        "location": "市区    菱塘北村",
        "latitude": 36.70705058725748,
        "longitude": 116.99590273311486
    },
    {
        "location": "胜北    神州嘉园花香维也纳 距2号线-建和桥1231m",
        "latitude": 31.990730797663037,
        "longitude": 117.69121349353668
    },
    {
        "location": "金沙洲    金沙大都汇(一期) 距6号线-沙贝308m",
        "latitude": 27.465354872613517,
        "longitude": 106.22644163900851
    },
    {
        "location": "商业片区    四方生态花园 距2号线-龙泉驿1769m",
        "latitude": 34.015759132808405,
        "longitude": 108.75259918428566
    },
    {
        "location": "土贤庄    永邦天汇",
        "latitude": 31.178040501457275,
        "longitude": 120.69835155431815
    },
    {
        "location": "谢家湾    丹泰红馆(商住楼) 距2号线-袁家岗572m",
        "latitude": 29.524384170611416,
        "longitude": 106.52751861193877
    },
    {
        "location": "拉萨火车站    泰玺华庭",
        "latitude": 29.63222507342514,
        "longitude": 91.08639536866934
    },
    {
        "location": "中北    云锦世家(北区)",
        "latitude": 39.119324635869575,
        "longitude": 117.08008412797429
    },
    {
        "location": "北市区    德润朗悦湾 距2号线-司家营1252m",
        "latitude": 30.94580766153111,
        "longitude": 120.38936131822048
    },
    {
        "location": "布达拉宫广场    尼吉苑小区",
        "latitude": 41.16511618909607,
        "longitude": 121.34572422347776
    },
    {
        "location": "枣园    美美景园 距1号线-皂河334m",
        "latitude": 34.2753120018956,
        "longitude": 108.88035161255662
    },
    {
        "location": "市府路    懿府 距1号线-中山西路173m",
        "latitude": 31.024509469840535,
        "longitude": 103.65466582869664
    },
    {
        "location": "建华    上东城(南北区) 距1号线-北宋862m",
        "latitude": 40.08660524470657,
        "longitude": 116.31322739377977
    },
    {
        "location": "二仙桥    源滩国际社区(商住楼) 距8号线-十里店792m",
        "latitude": 30.866506787038453,
        "longitude": 103.92284936920639
    },
    {
        "location": "赤岗    up智谷 距8号线-赤岗1438m",
        "latitude": 23.093555086611513,
        "longitude": 113.33703989583427
    },
    {
        "location": "滇池度假区    听涛雅苑",
        "latitude": 25.024065182021296,
        "longitude": 102.69679178289829
    },
    {
        "location": "容桂    碧桂园凤凰湾凤怡苑",
        "latitude": 22.803627913665675,
        "longitude": 113.3456211388766
    },
    {
        "location": "丰庆公园    西桃园小区 距5号线-丰庆公园615m",
        "latitude": 43.6648786567875,
        "longitude": 124.95507255407415
    },
    {
        "location": "汇景新城    汇景新城棕榈园",
        "latitude": 30.82496681959714,
        "longitude": 104.1817196375109
    },
    {
        "location": "古田    省柴小区 距1号线-古田二路497m",
        "latitude": 23.770515013561774,
        "longitude": 113.886517026946
    },
    {
        "location": "南屏街片区    青年路357号小区 距2号线-东风广场297m",
        "latitude": 34.015759132808405,
        "longitude": 108.75259918428566
    },
    {
        "location": "大行宫    良友里小区 距3号线-大行宫792m",
        "latitude": 32.04812711598138,
        "longitude": 118.79845372614717
    },
    {
        "location": "燕子矶    紫御东方(一期) 距1号线-笆斗山1215m",
        "latitude": 32.14258793123605,
        "longitude": 118.82676490226075
    },
    {
        "location": "新塘    顺欣花园",
        "latitude": 23.152484559707073,
        "longitude": 113.62383381116061
    },
    {
        "location": "布达拉宫广场    豪俊出租房",
        "latitude": 41.16511618909607,
        "longitude": 121.34572422347776
    },
    {
        "location": "建国公园    建国北头道街小区(建国北... 距3号线-河松街787m",
        "latitude": 31.061787743818673,
        "longitude": 120.92072025619132
    },
    {
        "location": "小寨    郝佳城市花园 距3号线-吉祥村556m",
        "latitude": 36.850733615452555,
        "longitude": 114.89769365082513
    },
    {
        "location": "布达拉宫广场    幸福北花园",
        "latitude": 41.16511618909607,
        "longitude": 121.34572422347776
    },
    {
        "location": "韦曲    风憬天下一期",
        "latitude": 34.172880910163826,
        "longitude": 108.92092151481211
    },
    {
        "location": "小市    汽轮四村 距3号线-小市385m",
        "latitude": 32.10499719901193,
        "longitude": 118.78987805259617
    },
    {
        "location": "布达拉宫广场    哈达幸福小区",
        "latitude": 45.13145986067662,
        "longitude": 124.86526460812723
    },
    {
        "location": "布心    观山盛苑 距5号线-布心1091m",
        "latitude": 22.583834713026135,
        "longitude": 114.14600811410273
    },
    {
        "location": "三山新城    保利诺丁山",
        "latitude": 31.23060222589733,
        "longitude": 118.24102048261318
    },
    {
        "location": "拉萨火车站    凤凰城",
        "latitude": 29.62936247542549,
        "longitude": 91.076709030189
    },
    {
        "location": "宝善    工人新村 距5号线-建国北路721m",
        "latitude": 29.817882504687777,
        "longitude": 106.1771019393976
    },
    {
        "location": "布达拉宫广场    领秀翡翠湾",
        "latitude": 41.16511618909607,
        "longitude": 121.34572422347776
    },
    {
        "location": "宝体    君逸世家花园 距1号线-宝体333m",
        "latitude": 30.553380923337237,
        "longitude": 104.06566296731874
    },
    {
        "location": "狮城国际广场    石狮金辉城",
        "latitude": 24.746400834029217,
        "longitude": 118.63045881170355
    },
    {
        "location": "拉萨火车站    祥和御府",
        "latitude": 29.62936247542549,
        "longitude": 91.076709030189
    },
    {
        "location": "天星桥    升伟朝凤苑 距环线-重庆图书馆583m",
        "latitude": 29.529313469766954,
        "longitude": 106.52392413227233
    },
    {
        "location": "东外滩    滨江晶典 距18号线-平凉路254m",
        "latitude": 31.276476571793008,
        "longitude": 121.53951126944831
    },
    {
        "location": "天河智慧城    天河新力 距21号线-神舟路1754m",
        "latitude": 23.17738368154778,
        "longitude": 113.41742449487644
    },
    {
        "location": "电视塔    象牙宫寓 距8号线-电视塔站485m",
        "latitude": 23.16532797096623,
        "longitude": 113.32187497171148
    },
    {
        "location": "城关    城关",
        "latitude": 36.0631814753695,
        "longitude": 103.83147490052859
    },
    {
        "location": "南坪    亚太商谷 距3号线-工贸796m",
        "latitude": 29.54010813286207,
        "longitude": 106.56568599609521
    },
    {
        "location": "大营门    宝德里 距5号线-下瓦房678m",
        "latitude": 39.11493860660459,
        "longitude": 117.22095217601313
    },
    {
        "location": "曹路    盛世春晓苑 距9号线-民雷路1167m",
        "latitude": 31.282243557146025,
        "longitude": 121.67350710067471
    },
    {
        "location": "公明    兆邦基端慧苑(商住楼)",
        "latitude": 22.76758943465872,
        "longitude": 113.91142218787971
    },
    {
        "location": "拉萨火车站    明耀国际",
        "latitude": 29.62936247542549,
        "longitude": 91.076709030189
    },
    {
        "location": "石狮泰禾广场    石狮碧桂园",
        "latitude": 24.738158500882612,
        "longitude": 118.6545881959991
    },
    {
        "location": "金融高新区    保利天汇",
        "latitude": 39.68181097563757,
        "longitude": 118.1863173601081
    },
    {
        "location": "犀浦    中铁伊萨贝拉 距有轨电车蓉2号线-国宁336m",
        "latitude": 30.773970830261472,
        "longitude": 103.9752070160249
    },
    {
        "location": "庞各庄    大兴河马科技小镇",
        "latitude": 39.63570610851967,
        "longitude": 116.329368955658
    },
    {
        "location": "白龙路片区    昆明理工大学白龙苑 距5号线-白龙寺613m",
        "latitude": 34.015759132808405,
        "longitude": 108.75259918428566
    },
    {
        "location": "新阳路    共乐小区 距3号线-公路大桥1538m",
        "latitude": 22.58644511121053,
        "longitude": 113.86596999519251
    },
    {
        "location": "拉萨火车站    双创广场",
        "latitude": 29.63316609542391,
        "longitude": 91.08965100749754
    },
    {
        "location": "十里铺    北城山水",
        "latitude": 34.37397894628955,
        "longitude": 107.20415090044699
    },
    {
        "location": "西斜七路    崇立苑 距3号线-太白南路539m",
        "latitude": 30.6332578527326,
        "longitude": 104.00315743264566
    },
    {
        "location": "布达拉宫广场    城福苑",
        "latitude": 32.094782150976705,
        "longitude": 112.22541118584287
    },
    {
        "location": "白塔路    七彩之门 距2号线-穿心鼓楼986m",
        "latitude": 39.92301761417885,
        "longitude": 116.35270477687399
    },
    {
        "location": "市区    中南雅苑(常熟)",
        "latitude": 31.679566585005922,
        "longitude": 120.78762982708841
    },
    {
        "location": "西兴    滨康天曜城 距5号线-滨康路654m",
        "latitude": 30.19109725436644,
        "longitude": 120.22527395919028
    },
    {
        "location": "光明    佳兆业云峰汇花园 距6号线-光明大街站765m",
        "latitude": 39.92122994788037,
        "longitude": 116.54594188021134
    },
    {
        "location": "拉萨火车站    双创广场",
        "latitude": 29.63316609542391,
        "longitude": 91.08965100749754
    },
    {
        "location": "浮桥    静江佳苑",
        "latitude": 31.607960068642246,
        "longitude": 121.21733608326178
    },
    {
        "location": "江东花园    俊发城文熙苑 距2号线-羊肠村1165m",
        "latitude": 29.707527612097593,
        "longitude": 107.4242067225498
    },
    {
        "location": "龙归    南村中路小区 距3号线(北延段)-龙归986m",
        "latitude": 23.288596156827673,
        "longitude": 113.30613432358754
    },
    {
        "location": "建华    乐城半岛 距1号线-北宋927m",
        "latitude": 47.360554871046276,
        "longitude": 123.96135010108006
    },
    {
        "location": "大溪沟    溪江悦 距2号线-大溪沟546m",
        "latitude": 30.72317221184354,
        "longitude": 103.48097657190083
    },
    {
        "location": "西藏北路    光华坊 距8号线-中兴路374m",
        "latitude": 25.04594186737146,
        "longitude": 102.71489533383487
    },
    {
        "location": "岗厦    岗厦村 距10号线-岗厦北站406m",
        "latitude": 22.542237034377628,
        "longitude": 114.0757448130687
    },
    {
        "location": "哈西    爱达九溪 距3号线-凯盛源广场719m",
        "latitude": 45.71471962544518,
        "longitude": 126.59035570999951
    },
    {
        "location": "珠江新城中    冼村回迁房 距18号线-冼村682m",
        "latitude": 23.126715483812998,
        "longitude": 113.35797975658716
    },
    {
        "location": "三堡    三堡家园北区 距9号线-江河汇站620m",
        "latitude": 34.13613193523068,
        "longitude": 117.18002555663965
    },
    {
        "location": "行政中心    白桦林间 距4号线-凤城九路453m",
        "latitude": 39.83237004026947,
        "longitude": 115.60794788534429
    },
    {
        "location": "中央公园    鲁能泰山7号十九街区 距5号线-鲁家沟866m",
        "latitude": 40.08196959964644,
        "longitude": 116.25386772500262
    },
    {
        "location": "江浦街道    招商雍宁府 距10号线-雨山路680m",
        "latitude": 32.05493968942483,
        "longitude": 118.6230347820919
    },
    {
        "location": "世纪公园    华兴小区 距3号线-东王521m",
        "latitude": 30.623608175562886,
        "longitude": 104.02625467089804
    },
    {
        "location": "汇君城    田家庄小区",
        "latitude": 37.886432541493605,
        "longitude": 115.19519869165553
    },
    {
        "location": "水头镇    中骏璟峰",
        "latitude": 24.680817479570727,
        "longitude": 118.44267082965176
    },
    {
        "location": "布达拉宫广场    拉百小区",
        "latitude": 41.16511618909607,
        "longitude": 121.34572422347776
    },
    {
        "location": "嘉定新城    绿地嘉域生活中心 距11号线-嘉定新城360m",
        "latitude": 31.367355254466144,
        "longitude": 121.28275112078673
    },
    {
        "location": "青山湖    大华西野风韵(公寓住宅)",
        "latitude": 28.68759600617345,
        "longitude": 115.96855240505471
    },
    {
        "location": "北厂    星耀南城",
        "latitude": 27.576240966559514,
        "longitude": 116.64339884970856
    },
    {
        "location": "亦庄    大雄城市花园 距亦庄线-亦庄文化园1160m",
        "latitude": 39.80725975357065,
        "longitude": 116.50087155718143
    },
    {
        "location": "里水    长信公馆",
        "latitude": 23.198412118405987,
        "longitude": 113.17536969732372
    },
    {
        "location": "爱联    恒大城市广场 距3号线-爱联249m",
        "latitude": 22.699770351688535,
        "longitude": 114.24013795524019
    },
    {
        "location": "照母山    洋丰圣乔维斯 距5号线-重光1130m",
        "latitude": 29.629132980557177,
        "longitude": 106.51013127998503
    },
    {
        "location": "北滘    美的云悦江山西园 距7号线-美的大道1071m",
        "latitude": 22.911640288999468,
        "longitude": 113.21258254204557
    },
    {
        "location": "中梁山    永缘城市交响",
        "latitude": 29.488819247839817,
        "longitude": 106.44247001069034
    },
    {
        "location": "三堡    江河鸣翠(公寓住宅) 距6号线-三堡站478m",
        "latitude": 34.13613193523068,
        "longitude": 117.18002555663965
    },
    {
        "location": "电子城    高新领域 距8号线-山门口站192m",
        "latitude": 34.20215268318266,
        "longitude": 108.91228143275605
    },
    {
        "location": "和平村    南站新村 距2号线-塘子巷404m",
        "latitude": 31.053324476366836,
        "longitude": 121.44450028040501
    },
    {
        "location": "银湖    梓树花苑(公寓住宅) 距6号线-银湖站1799m",
        "latitude": 31.259802893044768,
        "longitude": 121.61688798234741
    },
    {
        "location": "太平桥    黎华小区 距1号线-太平桥535m",
        "latitude": 30.996364975277896,
        "longitude": 120.73132385806188
    },
    {
        "location": "瓜沥    融创港印中心 距19号线-永盛路站1840m",
        "latitude": 30.189189142686587,
        "longitude": 120.42280451371255
    },
    {
        "location": "知识城    时代天韵(知识城) 距14号线(知识城线)-何棠下869m",
        "latitude": 23.328462988042503,
        "longitude": 113.53827101983842
    },
    {
        "location": "科技园    滨湖俊园 距1号线-白鹭湖1946m",
        "latitude": 31.534639699974193,
        "longitude": 120.29154752615551
    },
    {
        "location": "世纪公园    华兴小区 距3号线-东王521m",
        "latitude": 30.623608175562886,
        "longitude": 104.02625467089804
    },
    {
        "location": "吴井路    格林威治 距4号线-菊华站1337m",
        "latitude": 39.87903207443502,
        "longitude": 116.35279101420296
    },
    {
        "location": "福利社    阳光华庭雅园 距环线-海棠溪1666m",
        "latitude": 29.542156948738874,
        "longitude": 106.58368462494828
    },
    {
        "location": "定淮门    清江西苑 距4号线-龙江1231m",
        "latitude": 33.59495693345757,
        "longitude": 119.03049142920753
    },
    {
        "location": "徐官屯街    景瑞花园",
        "latitude": 31.307008957736823,
        "longitude": 121.48479458253003
    },
    {
        "location": "荣昌城区    财信中央大街",
        "latitude": 31.233264128116122,
        "longitude": 121.51339905539261
    },
    {
        "location": "区政府    绿地旭辉城 距6号线-奥体中心站293m",
        "latitude": 40.15606203259834,
        "longitude": 116.66728400036311
    },
    {
        "location": "燕子矶    吉祥花园 距1号线-燕子矶1147m",
        "latitude": 32.14258793123605,
        "longitude": 118.82676490226075
    },
    {
        "location": "布达拉宫广场    雅素公寓",
        "latitude": 41.16511618909607,
        "longitude": 121.34572422347776
    },
    {
        "location": "宝洲路    中升雅园",
        "latitude": 31.64219869357211,
        "longitude": 120.80018077201271
    },
    {
        "location": "黄土坡    广基馨悦尚居 距4号线-小屯站1041m",
        "latitude": 26.604567547707493,
        "longitude": 104.83703187837071
    },
    {
        "location": "布达拉宫广场    格桑林卡",
        "latitude": 30.014426093496454,
        "longitude": 97.1814708441319
    },
    {
        "location": "西北湖    八一二小区 距3号线-菱角湖261m",
        "latitude": 30.611868185278382,
        "longitude": 114.28087019612664
    },
    {
        "location": "白云大道北    东湖映月 距14号线-夏良520m",
        "latitude": 39.92239821336466,
        "longitude": 116.33100009880302
    },
    {
        "location": "区政府    汉峰峰公馆 距6号线-江汉路站826m",
        "latitude": 40.15606203259834,
        "longitude": 116.66728400036311
    },
    {
        "location": "徐泾北城    招商虹桥公馆(三期) 距17号线-徐盈路1268m",
        "latitude": 30.963493360390036,
        "longitude": 121.16018901192187
    },
    {
        "location": "拉萨火车站    长兴国际",
        "latitude": 29.628871776452883,
        "longitude": 91.08775387609164
    },
    {
        "location": "西南    恒福丽铂公馆",
        "latitude": 23.10584585262964,
        "longitude": 113.22866382761877
    },
    {
        "location": "长安医院    海璟台北湾(南区) 距8号线-霸城门站916m",
        "latitude": 31.047318863258397,
        "longitude": 121.76974903775832
    },
    {
        "location": "新宫    南庭新苑南区 距4号线大兴线-新宫1104m",
        "latitude": 39.82082888330678,
        "longitude": 116.37011052409645
    },
    {
        "location": "东山    中天渔安新城B组团",
        "latitude": 23.284474588758734,
        "longitude": 120.44229631631192
    },
    {
        "location": "碧海湾    榕江壹号院 距11号线-碧海湾448m",
        "latitude": 25.937725373250203,
        "longitude": 108.5275536987156
    },
    {
        "location": "黄兴    延吉七村 距8号线-延吉中路689m",
        "latitude": 28.141121622159424,
        "longitude": 113.11808403632693
    },
    {
        "location": "光谷东    光和创谷 距11号线-光谷五路689m",
        "latitude": 30.541888225692546,
        "longitude": 114.6110296303808
    },
    {
        "location": "布达拉宫广场    琅赛十一区(西区)",
        "latitude": 41.16511618909607,
        "longitude": 121.34572422347776
    },
    {
        "location": "嘉禾望岗    龙禧中心 距2号线-黄边694m",
        "latitude": 25.593421718267894,
        "longitude": 112.37558377831412
    },
    {
        "location": "新客站    一天下大厦 距13号线-汉中路160m",
        "latitude": 22.99482601801813,
        "longitude": 113.27582396857154
    },
    {
        "location": "龙华区政府    合正观澜汇(二期) 距4号线-茜坑566m",
        "latitude": 22.707272487986774,
        "longitude": 114.04735063353539
    },
    {
        "location": "星河湾    星河湾七期",
        "latitude": 39.93410154743498,
        "longitude": 116.52942204188285
    },
    {
        "location": "西溪    紫金西苑 距5号线-蒋村1194m",
        "latitude": 23.324664321192294,
        "longitude": 115.4121235570952
    },
    {
        "location": "临平    宋都时间名座",
        "latitude": 30.411896961665473,
        "longitude": 120.28838899415187
    },
    {
        "location": "周浦    汇福家园吉祥里 距18号线-沈梅路1844m",
        "latitude": 31.118069621798544,
        "longitude": 121.58592923040429
    },
    {
        "location": "哈西    金爵万象(二三期) 距3号线-凯盛源广场530m",
        "latitude": 28.455253778206487,
        "longitude": 119.9191007026401
    },
    {
        "location": "棠东    城投珠江天河壹品",
        "latitude": 39.93482727239599,
        "longitude": 116.4224009776628
    },
    {
        "location": "黄石    金碧新城 距8号线-小坪437m",
        "latitude": 30.205207848941598,
        "longitude": 115.04553290894361
    },
    {
        "location": "水头镇    中梁海峡一号",
        "latitude": 24.71210091093897,
        "longitude": 118.43830910724951
    },
    {
        "location": "钱江世纪城    澄之华庭 距2号线-盈丰路710m",
        "latitude": 30.237506005826564,
        "longitude": 120.26058248607382
    },
    {
        "location": "垡头    首创繁星",
        "latitude": 39.84424121857243,
        "longitude": 116.54406370305108
    },
    {
        "location": "土贤庄    翰玉门庭",
        "latitude": 30.24716812413746,
        "longitude": 120.16411669125712
    },
    {
        "location": "胥江    枣市新村 距2号线-劳动路1210m",
        "latitude": 31.29036102032874,
        "longitude": 120.59780664401119
    },
    {
        "location": "南屏街片区    青年路357号小区 距2号线-东风广场297m",
        "latitude": 34.015759132808405,
        "longitude": 108.75259918428566
    },
    {
        "location": "金星立交桥    实力北岸 距2号线-金星1398m",
        "latitude": 37.99363060323053,
        "longitude": 106.21408824364399
    },
    {
        "location": "东海湾    海悦府",
        "latitude": 34.61929975369341,
        "longitude": 118.68179707770491
    },
    {
        "location": "世纪公园    华兴小区 距3号线-东王521m",
        "latitude": 30.623608175562886,
        "longitude": 104.02625467089804
    },
    {
        "location": "磁器口    碧桂园摩卡 距1号线-磁器口682m",
        "latitude": 29.581195081901193,
        "longitude": 106.462851361949
    },
    {
        "location": "拉萨火车站    经开锦城苑",
        "latitude": 29.62862383598655,
        "longitude": 91.00231073906333
    },
    {
        "location": "玄武东路    金辉江山铭著 距8号线-米家崖站1006m",
        "latitude": 39.93050275265966,
        "longitude": 116.4141169839109
    },
    {
        "location": "万安街道    豪公馆",
        "latitude": 24.948181840341093,
        "longitude": 118.68168171898493
    },
    {
        "location": "镜湖大道    合和新城 距9号线-清塘819m",
        "latitude": 23.138385311182805,
        "longitude": 113.26700251863592
    },
    {
        "location": "二仙桥    中车共享城锦苑 距8号线-十里店1086m",
        "latitude": 39.89683482603021,
        "longitude": 116.19099092066226
    },
    {
        "location": "姑苏城区    CCB建融家园(平江) 距2号线-平泷路东871m",
        "latitude": 39.72673487368468,
        "longitude": 116.43544401434548
    },
    {
        "location": "拉萨火车站    天知雅砻阳光花园",
        "latitude": 29.631912077651055,
        "longitude": 91.07140696157921
    },
    {
        "location": "云鹿路    碧桂园凤凰岛",
        "latitude": 31.24602435107175,
        "longitude": 120.87528405332718
    },
    {
        "location": "绿岛湖    龙光玖钻广场 距2号线-绿岛湖777m",
        "latitude": 23.181238419936697,
        "longitude": 106.76622991638446
    },
    {
        "location": "布达拉宫广场    三江家园",
        "latitude": 25.78883038778805,
        "longitude": 109.6145474722304
    },
    {
        "location": "体育馆    诚基中心国际公寓 距1号线-营口道281m",
        "latitude": 40.15283403375312,
        "longitude": 117.08477301324473
    },
    {
        "location": "滇池路片区    恒大云报华府",
        "latitude": 34.015759132808405,
        "longitude": 108.75259918428566
    },
    {
        "location": "陈村    万科水晶城(南区) 距2号线-登洲1415m",
        "latitude": 34.4885221674803,
        "longitude": 107.2714219458505
    },
    {
        "location": "广安    谈后小区 距2号线-长安公园774m",
        "latitude": 30.53921096825393,
        "longitude": 106.46336937012113
    },
    {
        "location": "奥南    金穗花园 距7号线-永初路733m",
        "latitude": 23.096742010836614,
        "longitude": 113.30310317130623
    },
    {
        "location": "平洲    依岸康堤花园",
        "latitude": 23.030561030084368,
        "longitude": 113.20757403967633
    },
    {
        "location": "金洲    南沙城(商住楼) 距4号线-金洲1060m",
        "latitude": 28.28287326472348,
        "longitude": 112.69466818349146
    },
    {
        "location": "千灯湖    万科金色领域(商住楼) 距广佛线-礌岗479m",
        "latitude": 31.389377403569366,
        "longitude": 121.22579738365695
    },
    {
        "location": "拉萨火车站    南城碧水湾",
        "latitude": 29.639335102644996,
        "longitude": 91.09102397763853
    },
    {
        "location": "金星立交桥    昆明广场中央(B区) 距2号线-白云路495m",
        "latitude": 25.07573303961447,
        "longitude": 102.72714804132583
    },
    {
        "location": "吴中太湖新城    新希望滨江锦麟壹品 距4号线-天鹅荡路1652m",
        "latitude": 31.19621641018464,
        "longitude": 120.62087234476034
    },
    {
        "location": "桥北    明发滨江新城(三期) 距3号线-柳洲东路626m",
        "latitude": 31.022963080371614,
        "longitude": 121.80671134508573
    },
    {
        "location": "临平北    华立和郡 距9号线-邱山大街站1906m",
        "latitude": 30.43074395735021,
        "longitude": 120.30375720481659
    },
    {
        "location": "金沙洲    时代水岸二期",
        "latitude": 39.84198889049019,
        "longitude": 116.43153342096889
    },
    {
        "location": "金融高新区    万科金域中央(商住楼) 距广佛线-金融高新区1771m",
        "latitude": 39.68181097563757,
        "longitude": 118.1863173601081
    },
    {
        "location": "滇池路片区    金地悦天下 距5号线-金兰路1785m",
        "latitude": 34.015759132808405,
        "longitude": 108.75259918428566
    },
    {
        "location": "布达拉宫广场    西藏旭洋公司小区",
        "latitude": 41.16511618909607,
        "longitude": 121.34572422347776
    },
    {
        "location": "金山新城    绿地金卫新家园(2208...",
        "latitude": 30.751069566711305,
        "longitude": 121.3224372700815
    },
    {
        "location": "嘉定新城    丽景公寓",
        "latitude": 31.367355254466144,
        "longitude": 121.28275112078673
    },
    {
        "location": "东山    天元吉第城 距1号线-龙眠大道1420m",
        "latitude": 23.284474588758734,
        "longitude": 120.44229631631192
    },
    {
        "location": "石坪桥    通用晶城 距环线-陈家坪507m",
        "latitude": 29.52910456480195,
        "longitude": 106.5004656025314
    },
    {
        "location": "福建路    中海凯旋门",
        "latitude": 32.09090009509682,
        "longitude": 118.76163847143175
    },
    {
        "location": "新华路南    和润苑 距1号线-和平医院904m",
        "latitude": 31.250010922161547,
        "longitude": 121.07439275096938
    },
    {
        "location": "新牌坊    佳乐园 距环线-民安大道812m",
        "latitude": 23.21113050507408,
        "longitude": 113.28615322430515
    },
    {
        "location": "南桥    金昊丽苑 距5号线-奉贤新城586m",
        "latitude": 34.720014009244096,
        "longitude": 118.00685211476456
    },
    {
        "location": "照母山    东原星樾",
        "latitude": 29.629132980557177,
        "longitude": 106.51013127998503
    },
    {
        "location": "水上公园    文书苑 距3号线-高柱420m",
        "latitude": 39.10149901871705,
        "longitude": 117.1600042132638
    },
    {
        "location": "钱江世纪城    丰瑞北苑 距2号线-盈丰路1684m",
        "latitude": 30.237506005826564,
        "longitude": 120.26058248607382
    },
    {
        "location": "凤凰城    碧桂园凤凰城凤馨苑",
        "latitude": 40.46582033258959,
        "longitude": 124.07432038291391
    },
    {
        "location": "沙河    翠明新城 距昌平线-沙河1456m",
        "latitude": 36.91064259678563,
        "longitude": 114.55348687432814
    },
    {
        "location": "汾江北    敏捷金谷国际(商住楼)",
        "latitude": 29.612832314080265,
        "longitude": 106.5804150623847
    },
    {
        "location": "布达拉宫广场    西藏自治区矿业开发总公司...",
        "latitude": 41.16511618909607,
        "longitude": 121.34572422347776
    },
    {
        "location": "徐东    福星惠誉月亮湾壹号 距5号线-徐家棚403m",
        "latitude": 30.594273119760192,
        "longitude": 114.35420103083936
    },
    {
        "location": "凤城五路    世融嘉城 距8号线-霸城门站1407m",
        "latitude": 34.33149432836718,
        "longitude": 108.93223648118524
    },
    {
        "location": "城关    城关",
        "latitude": 36.0631814753695,
        "longitude": 103.83147490052859
    },
    {
        "location": "航天城    双竹村 距2号线-韦曲南1296m",
        "latitude": 40.085649091328975,
        "longitude": 116.27680802230257
    },
    {
        "location": "北滨路    御龙天峰 距3号线-华新街831m",
        "latitude": 29.573485933116967,
        "longitude": 106.5469377312943
    },
    {
        "location": "城角街    振二街北苑 距1号线-和平医院1744m",
        "latitude": 40.00111295265103,
        "longitude": 116.42281078463645
    },
    {
        "location": "珠峰大街    天山水榭花都(裕华) 距1号线-留村1862m",
        "latitude": 38.931492883964935,
        "longitude": 117.44913327385807
    },
    {
        "location": "花溪公园    腾龙湾A3区 距3号线-中曹司938m",
        "latitude": 31.118807414139933,
        "longitude": 120.67476214145668
    },
    {
        "location": "阅山湖    万科翡翠公园(A区) 距1号线-老湾塘1358m",
        "latitude": 39.77354406377935,
        "longitude": 116.3268299849646
    },
    {
        "location": "区政府    时代滨江丹枫四季 距6号线-江陵路站579m",
        "latitude": 40.15606203259834,
        "longitude": 116.66728400036311
    },
    {
        "location": "华新    西郊半岛名苑",
        "latitude": 31.232494891468793,
        "longitude": 121.23427496224627
    },
    {
        "location": "钱江世纪城    澄之华庭 距2号线-盈丰路710m",
        "latitude": 30.237506005826564,
        "longitude": 120.26058248607382
    },
    {
        "location": "市政府    滇池明珠广场 距1号线-驼峰街480m",
        "latitude": 40.15606203259834,
        "longitude": 116.66728400036311
    },
    {
        "location": "新区    广州融创文旅城(商住楼)",
        "latitude": 23.438597624278948,
        "longitude": 113.23506937471667
    },
    {
        "location": "平洲    龙光天曜",
        "latitude": 23.181238419936697,
        "longitude": 106.76622991638446
    },
    {
        "location": "拉萨火车站    海亮世纪新城",
        "latitude": 29.62306098553846,
        "longitude": 91.08870796637346
    },
    {
        "location": "万安街道    阳光国际广场",
        "latitude": 24.948181840341093,
        "longitude": 118.68168171898493
    },
    {
        "location": "城东    泰禾首府",
        "latitude": 36.605707645661155,
        "longitude": 101.8095690383313
    },
    {
        "location": "大营坡    中建华府(EF区) 距3号线-大营坡27m",
        "latitude": 26.667281748641294,
        "longitude": 106.18427643601177
    },
    {
        "location": "钱江世纪城    桂冠东方城二区 距6号线-丰北站1141m",
        "latitude": 26.60990794597814,
        "longitude": 106.63966199380076
    },
    {
        "location": "体育南大街    塔冢新村E区 距3号线-塔冢894m",
        "latitude": 38.01006222877497,
        "longitude": 114.53190885733406
    },
    {
        "location": "石林城区    世纪阳光(一期)",
        "latitude": 40.37760206345945,
        "longitude": 116.84574424755294
    },
    {
        "location": "大学城    中渝春华秋实(二期)",
        "latitude": 29.57621247382465,
        "longitude": 106.49834344559534
    },
    {
        "location": "胥江    东大街77号小区 距5号线-南门站554m",
        "latitude": 31.168991123257296,
        "longitude": 121.50199264151856
    },
    {
        "location": "九堡沿江    天澜美境公寓 距9号线-红普南路站570m",
        "latitude": 30.31717056007376,
        "longitude": 120.27893064560676
    },
    {
        "location": "吉祥村    巴厘公馆 距3号线-太白南路1091m",
        "latitude": 30.999321550273677,
        "longitude": 121.19643366297736
    },
    {
        "location": "桥南片区    当代万国城(三期)",
        "latitude": 46.80766769805838,
        "longitude": 130.3713399506807
    },
    {
        "location": "市府路    亨特国际 距2号线-省人民医院717m",
        "latitude": 31.200842867693858,
        "longitude": 121.11643398781966
    },
    {
        "location": "三桥    新城玺樾台 距2号线-马王庙555m",
        "latitude": 32.88588016280268,
        "longitude": 114.3622981770452
    },
    {
        "location": "钱江世纪城    桂冠东方城一区 距6号线-丰北站956m",
        "latitude": 26.60990794597814,
        "longitude": 106.63966199380076
    },
    {
        "location": "中华南路    西湖巷26号院 距2号线-省人民医院662m",
        "latitude": 31.784876360921533,
        "longitude": 119.96128820032865
    },
    {
        "location": "娄门    北园新村 距6号线-拙政园站1054m",
        "latitude": 31.243036703962076,
        "longitude": 121.52909272214357
    },
    {
        "location": "谈固    金谈固家园地坛园 距1号线-朝晖桥335m",
        "latitude": 38.04964192075568,
        "longitude": 114.56847860515362
    },
    {
        "location": "纸坊    富丽豪庭 距7号线-谭鑫培公园1454m",
        "latitude": 33.73069056927395,
        "longitude": 105.49379948742562
    },
    {
        "location": "拉萨火车站    长兴都汇",
        "latitude": 29.636906471946528,
        "longitude": 91.0836718860251
    },
    {
        "location": "官南大道    领秀云门苑 距1号线-日新路1926m",
        "latitude": 39.73627873265543,
        "longitude": 116.34599182962849
    },
    {
        "location": "九莲    国都枫华府第 距2号线-学院路280m",
        "latitude": 30.724840608328158,
        "longitude": 121.35830858536703
    },
    {
        "location": "花果园    花果园B南区 距3号线-松花路291m",
        "latitude": 26.570062524642587,
        "longitude": 106.67867953429156
    },
    {
        "location": "拉萨火车站    青藏家苑",
        "latitude": 29.62936247542549,
        "longitude": 91.076709030189
    },
    {
        "location": "新亚洲体育城    俊云峰文书院",
        "latitude": 24.95271919600373,
        "longitude": 102.77649061551435
    },
    {
        "location": "盐步    佰德广场",
        "latitude": 23.0903545389173,
        "longitude": 113.19209452896406
    },
    {
        "location": "富春    万科大家九都会(商住楼) 距6号线-公望街站982m",
        "latitude": 40.07558875358126,
        "longitude": 116.31772134675452
    },
    {
        "location": "新立镇    丰年北里 距津滨轻轨(9号线)-新立488m",
        "latitude": 32.47648603440664,
        "longitude": 115.18681965718066
    },
    {
        "location": "世纪城    金阳世纪城龙福苑 距2号线-金阳医院1740m",
        "latitude": 27.702144511749296,
        "longitude": 103.25454895521494
    },
    {
        "location": "唐家墩    新华西美林公馆 距3号线-范湖419m",
        "latitude": 39.65916525036152,
        "longitude": 106.8233515591705
    },
    {
        "location": "杨舍    中联皇冠",
        "latitude": 31.87153236664166,
        "longitude": 120.5208275211308
    },
    {
        "location": "大马村    大马庄园 距3号线-位同1030m",
        "latitude": 36.20355938363084,
        "longitude": 115.08489683605194
    },
    {
        "location": "大唐西市    御溪书院(商业) 距6号线-大唐西市791m",
        "latitude": 31.15317696641399,
        "longitude": 121.39894613002743
    },
    {
        "location": "乐园街    五院小区 距3号线-旭升街1053m",
        "latitude": 39.899725918024174,
        "longitude": 116.35924641725876
    },
    {
        "location": "新区    广州融创文旅城(商住楼)",
        "latitude": 23.438597624278948,
        "longitude": 113.23506937471667
    },
    {
        "location": "拉萨火车站    泰玺华庭",
        "latitude": 29.63222507342514,
        "longitude": 91.08639536866934
    },
    {
        "location": "布达拉宫广场    当巴社区",
        "latitude": 41.16511618909607,
        "longitude": 121.34572422347776
    },
    {
        "location": "狮山    华珑恒湖轩",
        "latitude": 23.10643487000595,
        "longitude": 113.06638565593927
    },
    {
        "location": "柯木塱    柯木塱元墩西街小区 距6号线-柯木塱809m",
        "latitude": 23.200689879269717,
        "longitude": 113.40427491916464
    },
    {
        "location": "转塘    云浦佳苑(四区) 距6号线-双浦1511m",
        "latitude": 30.12360023532183,
        "longitude": 120.09529454172953
    },
    {
        "location": "群力    中海寰宇天下 距3号线-群力第五大道1093m",
        "latitude": 30.304217084576504,
        "longitude": 105.84792149065008
    },
    {
        "location": "城关    城关",
        "latitude": 36.0631814753695,
        "longitude": 103.83147490052859
    },
    {
        "location": "钱江湾    臻到豪庭 距6号线-西浦路站672m",
        "latitude": 30.184343463781612,
        "longitude": 120.13926578796799
    },
    {
        "location": "津南八里台    碧桂园蓝岸庭院",
        "latitude": 38.946838732679794,
        "longitude": 117.34188314173298
    },
    {
        "location": "太阳宫    太阳公元(北区) 距13号线-芍药居934m",
        "latitude": 39.98745877099339,
        "longitude": 116.44850825103819
    },
    {
        "location": "龙头寺    华夏佳和苑 距环线-民安大道235m",
        "latitude": 29.622574572612788,
        "longitude": 106.55580427616651
    },
    {
        "location": "三峡广场    奇峰清华源 距环线-沙坪坝624m",
        "latitude": 24.87466064402624,
        "longitude": 121.41788241051769
    },
    {
        "location": "西红门    宏旭东路2号办公楼",
        "latitude": 40.003869932333416,
        "longitude": 116.35699795856728
    },
    {
        "location": "魁奇    万通国际 距广佛线-魁奇路128m",
        "latitude": 23.15323070681274,
        "longitude": 113.2558242743651
    },
    {
        "location": "布达拉宫广场    嘎玛贡桑住宅区",
        "latitude": 29.657253391022504,
        "longitude": 91.15611878809207
    },
    {
        "location": "西永    龙湖拉特芳斯(一街区商住... 距1号线-微电园335m",
        "latitude": 28.456018340653763,
        "longitude": 110.40769895589824
    },
    {
        "location": "会展城    中天会展城B区B7组团 距1号线-国际生态会议中心1047m",
        "latitude": 30.243064762160113,
        "longitude": 104.85069448808281
    },
    {
        "location": "赤岗    聚德花苑 距11号线-大塘1412m",
        "latitude": 23.091171512847595,
        "longitude": 113.33547738323074
    },
    {
        "location": "桐庐城区    上杭大厦",
        "latitude": 25.055570401525458,
        "longitude": 116.42644288775742
    },
    {
        "location": "霞美镇    长福村自建房",
        "latitude": 24.00528858017511,
        "longitude": 117.69426789596537
    },
    {
        "location": "城站    江明月朗园 距1号线-婺江路342m",
        "latitude": null,
        "longitude": null
    },
    {
        "location": "胡家园街    远洋城滨雅花园",
        "latitude": 29.536467985643622,
        "longitude": 106.47631304195372
    },