location,latitude,longitude
体育中心    宝龙城市广场(晋江),24.808068281382436,118.57263973689511
宗关    融侨锦江 距1号线-宗关664m,30.58512178524914,114.23583472735051
上海南站    汇成苑一村 距15号线-华东理工大学979m,31.159438874262317,121.43586513902925
台商投资区    保利时光印象,23.1987530916325,113.57288084468487
大唐西市    御溪书院(商业) 距6号线-大唐西市791m,31.15317696641399,121.39894613002743
进港大道    金涌街小区 距4号线-大涌429m,23.1376613461669,113.32675492656227
松江大学城    莱顿小城,31.072669881386464,121.25248199798361
白云公园    白金壹号C区,26.688797420388234,106.65668946456732
观音桥    城市领地 距3号线-华新街300m,29.572660731536796,106.54313547356348
拉萨火车站    顿珠金融城融晖园,29.641159087347475,91.10190236753022
新安    宝河大厦 距12号线-新安公园402m,34.743560300567246,112.13816101742249
群力    里普利广场,45.73953955880347,126.52904114877119
布达拉宫广场    拉萨市第四期安居园,29.68679593804462,91.14442815035852
"两路口    下罗家湾3-7号,29号... 距10号线-曾家岩572m",29.571743248275318,106.93738074141365
湖东    凤凰城(工业园区) 距6号线-涵青桥站940m,40.46582033258959,124.07432038291391
布达拉宫广场    哈达职工住宅区(孜希塘路...,41.16511618909607,121.34572422347776
公明    金地明峰府 距6号线-薯田埔站253m,22.785134526043514,113.90322883315646
彩虹城    钱江彩虹城 距4号线-联庄641m,39.84503008709615,116.42290402874839
花果园    花果园半山小镇W2区 距3号线-松花路1127m,30.706157357809133,104.07821849360116
布达拉宫广场    哈达职工住宅区(孜希塘路...,41.16511618909607,121.34572422347776
安埠    安埠小区(南区) 距3号线-油坊街724m,45.734800388450765,126.70096640303812
葵涌    卓越蔚蓝铂樾府,22.63461457332589,114.43980674630191
布达拉宫广场    康桑苑(娘热路),41.16511618909607,121.34572422347776
龙洲湾    佳兆业广场(一期) 距3号线-大山村1199m,29.416903649715525,106.54360340090348
拉萨火车站    圣地财富广场,29.637407098361823,91.08554305640176
和睦    杭曜置地中心(南区) 距5号线-和睦702m,30.319613543161253,120.12824905902416
后湖    星悦城一期 距8号线-中一路1171m,40.012119820371865,116.30256414805412
城关    城关,36.0631814753695,103.83147490052859
南坪    升伟一里南滨(商住楼) 距3号线-南坪1079m,29.529313469766954,106.52392413227233
西寨    田园美居 距2号线-韦曲南405m,39.613953005533226,117.19801583125742
农业园区    金鹏两江时光 距9号线-宝圣湖1643m,42.66037494317727,128.11242705884513
金银湖    融创观澜壹号(西区) 距6号线-海口三路1852m,30.65159302378657,114.16814695802091
布达拉宫广场    宏发尼盛峰誉,41.16511618909607,121.34572422347776
凤凰城    碧桂园凤凰城凤馨苑,40.46582033258959,124.07432038291391
中南路    嘉园大厦 距4号线-中南路91m,30.679873041216386,104.04611619874382
弹子石    泽京微V,30.861289477524796,108.01699485810546
新添寨    北衙尚城,26.64260428083102,106.7772236487036
溧水区    秦淮佳苑5期 距S7号线-溧水1488m,31.677413366394315,119.05837582037333
彭后    元北小区 距2号线-槐中路1447m,31.279937808755786,121.58698707497284
花果园    花果园R区(商住楼) 距3号线-五里冲761m,26.570062524642587,106.67867953429156
八匹马    富力新天地 距2号线-观山西路719m,23.131151797575086,113.39270752894701
科技路西口    中国铁建瑞园 距3号线-丈八北路801m,30.114235152277878,119.17770259211345
布达拉宫广场    加措社区,28.784026930087183,87.259505741444
三桥    万科云岩大都会 距2号线-改茶路549m,26.590645601638006,106.67770729823843
金色港湾    观澜高尔夫公馆 距6号线-江城大道1709m,39.75829401353539,116.2969633928605
朝天宫    莫愁路249-265号(... 距2号线-上海路941m,32.055288244816566,118.78391208770427
拉萨火车站    双创广场,29.63316609542391,91.08965100749754
淘金    保利麓苑 距5号线-小北924m,39.92233810593866,116.37030231232282
三里屯    首开幸福广场 距17号线北段-工人体育场420m,39.943351020897126,116.45600146644968
石林城区    世纪阳光(一期),40.37760206345945,116.84574424755294
朝青板块    青年汇佳园 距6号线-青年路490m,,
安溪万达广场    安溪万达华府,25.078393510951315,118.22965726109096
休门    四中路68号大院 距2号线-裕华路454m,30.67582050540015,104.04896364754936
潘家园    农光南里 距10号线-潘家园442m,39.88300607704931,116.46886538101366
滇池路片区    南亚风情第壹城南亚星光苑 距5号线-福海383m,34.015759132808405,108.75259918428566
垡头    首创繁星,39.84424121857243,116.54406370305108
布达拉宫广场    尼霞苑(B区),41.16511618909607,121.34572422347776
青村    北唐新苑(东区),30.935522807565917,121.58376197853092
北国商城    休门南街6号院 距2号线-裕华路866m,38.0944290560109,114.31258981283672
大石    天骄时代 距3号线-大石798m,23.02216166551463,113.33062347923972
北苑    北苑小区(新华) 距3号线-西三庄1687m,38.0856818525086,114.4585245734435
蔡家    红星大都汇 距6号线-蔡家1222m,38.862203320901365,115.51834622259045
琶洲    保利天悦 距4号线-万胜围1182m,23.104080363758758,113.34692089711857
大浪    元芬新村 距6号线-元芬站692m,22.660688961580146,114.00894995943808
西安交通大学    陕钢家属院 距6号线-公园南路51m,30.77039889704779,103.99321381946406
东平新城    盈天广场(商住楼) 距3号线-湾华587m,35.94190801501926,116.47759421565412
胜北    神州嘉园花香维也纳 距2号线-建和桥1231m,31.990730797663037,117.69121349353668
南坪    万达广场银邸 距3号线-南坪192m,29.536840907086287,106.57629327738407
佳荣里街    瑞桐家园,39.19323956393515,117.1156332210734
进港大道    阳光城丽景湾澜悦,40.162528800823154,117.11393838806772
赵陵铺    苏秀苑 距3号线-柏林庄1287m,38.09978305739108,114.48048805333191
前卫营    润城第四大道,25.311479119256447,102.77141914192889
石铜路    丰河苑,36.18664365101327,120.41765354008778
石狮泰禾广场    曾坑社区自建房,24.733763742377075,118.65278691379108
高营    南高营,38.094581907206496,114.56777029125898
拉萨火车站    圣地财富广场,29.637407098361823,91.08554305640176
奥南    莲花新城北苑 距S3号线-油坊桥164m,41.446771528957576,120.06498265958413
北市区    金水湾小区 距2号线-司家营1183m,31.176419085183927,121.27047604548453
鹿角    融创欧麓花园城依云郡,29.137521288558787,108.29567445682379
布达拉宫广场    加措社区,28.784026930087183,87.259505741444
西安奥体中心    1668新时代广场 距3号线-国际港务区970m,34.367774489116684,109.03867903665686
武宁    中岚大楼 距3号线-镇坪路525m,29.262352150699854,115.10744177398514
龙溪    金城国际 距6号线-花卉园830m,45.55025192520799,126.98177149528703
城市广场    星空广场 距广佛线-南桂路1986m,39.72878228840534,116.18500946359353
小寨    陕西省军区西安第八离职干... 距3号线-小寨728m,34.051643462590974,109.29411400503011
冉家坝    兴茂盛世北辰(B区) 距环线-南桥寺966m,29.590431057389644,106.4947907371351
竹子林    一冶广场 距2号线-深康1085m,30.633725977522474,114.2763644753497
观音桥    旭阳朗晴广场 距3号线-观音桥369m,39.78548772337107,116.59435084549965
盛泽    新城十里锦绣,30.887544769622583,120.5658373881999
韦曲    长安花园 距2号线-航天城361m,34.164915878664615,108.94122860917068
潍坊新村    潍坊六村 距6号线-浦电路768m,36.71265155126753,119.16837791142822
建港    弘阳印月府 距6号线-前进村1607m,31.036517804975315,121.84800016124085
布达拉宫广场    加措社区,28.784026930087183,87.259505741444
钱江世纪城    君品名邸 距2号线-盈丰路1319m,30.237506005826564,120.26058248607382
朝外大街    中骏世界城 距6号线-东大桥690m,39.91773056473404,116.13213026059591
潮鸣    兴和公寓 距5号线-建国北路421m,23.19932234721448,113.37366192502242
湖墅    大塘新村 距2号线-沈塘桥895m,,
布达拉宫广场    加措社区,28.784026930087183,87.259505741444
光谷软件园    旭辉千山凌云 距2号线-黄龙山路1442m,40.12917936026686,116.61863357055371
浮桥    鼎盛大观,24.970317038896575,118.40797701324017
温泉    富力泉天下,47.286267328178155,130.29142965692074
北湖    紫藤花园 距6号线-三眼桥304m,39.95412764421206,116.4881440952244
四新    保和墨水湾 距6号线-建港1934m,30.53721817875035,114.25240127756553
西安交通大学    云峰大厦(碑林) 距5号线-雁翔路北口339m,30.77039889704779,103.99321381946406
昆明路    宏府鹍翔荟 距5号线-汉城南路371m,29.790911071106986,119.69992592608004
福永    会展湾东城广场 距12号线-国展北1029m,39.93482727239599,116.4224009776628
西南    旭辉城,39.68525515436743,116.14317250141622
韩森寨    融创东方宸院 距8号线-韩森寨站287m,34.25713761539783,109.02880046079417
拉萨火车站    海亮世纪新城,29.62306098553846,91.08870796637346
容桂    实地紫藤公馆,22.768501188158954,113.26486284474241
拉萨火车站    高度梧家,29.63406614051518,91.08741701152552
二郎    金科云湖天都,29.51209435722599,106.49148569150388
万达广场    万达华府C区,39.912079085025304,116.23189795697564
冉家坝    新城丽都 距5号线-大龙山786m,29.59649396776858,106.49818202009526
辛家庙    天香心苑 距3号线-辛家庙354m,34.32731772535735,109.02736155502829
天河智慧城    万科云城米酷 距21号线-天河智慧城720m,23.17738368154778,113.41742449487644
紫金山    奥克斯钟山府 距2号线-仙鹤门901m,23.23591564137028,113.72072037224618
天河客运站    长福路小区 距3号线-天河客运站1336m,23.176344896220243,113.35067428702968
钱江世纪城    拥翠府 距7号线-明星路1531m,30.237506005826564,120.26058248607382
太白立交    凯旋城 距5号线-边家村981m,40.00387414654514,116.4261095421302
赵巷    龙湖滟澜山(一期公寓住宅...,40.097958953793785,116.50779884012162
二仙桥    中车共享城锦苑 距8号线-十里店1086m,39.89683482603021,116.19099092066226
皇岗    阳光城市 距10号线-福民站640m,22.53310734817462,114.06830684344853
天河北    隆德大厦 距3号线-石牌桥100m,23.139580916543036,113.33696668393523
布达拉宫广场    天峰祥和苑,26.869678693431933,100.23760005180283
泗村店镇    恒大山水城(西区),39.485925396507206,116.9602596051511
悦来    首地江山赋悦江城 距10号线-悦来1505m,29.7336071449269,106.56293736089668
莲花片区    云南省招考院家属区 距4号线-小菜园站764m,24.884725037412892,102.8207320720356
拉萨火车站    兴旺小区,29.62936247542549,91.076709030189
花溪公园    花溪区人民医院宿舍 距3号线-花溪公园277m,26.439191464638988,106.67855691558948
呼兰城区    顺迈欣郡3期 距2号线-江北大学城1076m,45.879071033281974,126.55054415725532
横泾    兴建小区,45.609239741837875,126.64779911346314
布达拉宫广场    天峰祥和苑,26.869678693431933,100.23760005180283
布达拉宫广场    加措社区,28.784026930087183,87.259505741444
泥城    群峰雅苑,30.89546216203608,121.80697095537812
鱼洞    曦圆江南华都 距3号线-鱼胡路373m,23.782658856616408,114.0322928772599
新螺蛳湾    万科公园里(二期) 距1号线-南部汽车站1144m,24.96550968275435,102.78661972878042
光明    正兆景嘉园 距6号线-楼村站1300m,22.7757063567566,113.92650563569276
杨公桥    俊峰龙凤云洲 距1号线-杨公桥109m,31.288166102970695,121.49620063708187
群力    三松宜家 距3号线-医大一院群力医院799m,30.304217084576504,105.84792149065008
大商汇    未名城(3期),24.987809580206612,102.71448696415018
新华路    三金华都 距6号线-唐家墩930m,34.793893057567836,113.54782307624171
云东海    保利中央公园(中韵二期),34.52554234915723,118.76623060919876
哈西    中海雍景熙岸 距3号线-哈西大街1279m,45.692133035234,126.60190028326107
新牌坊    龙湖西苑锦水苑 距环线-洪湖东路670m,23.21113050507408,113.28615322430515
中闽百汇    泉州五中教工宿舍,24.89146862650609,118.61678085269094
关山    保利时代(北区),30.497010721977198,114.41438130169988
横沥    越秀明珠天悦江湾,23.13526012014849,113.27342648099675
磁各庄    北京城建北京密码(西区),39.68841230489194,116.40310735158062
北站    电大街院,,
哈西    南开华府 距1号线-理工大学1397m,45.71526089145673,126.5982048340541
石桥铺    高柳馨园 距5号线-巴山376m,29.527323551747642,106.47981939784965
火车北站    王旗营万福里小区 距5号线-火车北站700m,40.23723084047673,116.23778913434062
杨家坪    万科西九(一期商住楼) 距18号线-石坪桥402m,29.51261085344824,106.52880238034265
群力    群力新苑(东区) 距3号线-工农大街1069m,31.065807282024956,121.3959244997835
控江路    控江五村 距8号线-延吉中路587m,31.289104143103607,121.52538254072627
大石坝    东原D8公馆 距5号线-大石坝141m,29.57520000297561,106.50039715165158
固戍    臣田开元广场 距12号线-宝田一路850m,22.597232212983137,113.85114346275523
嘉陵道    沱江里 距6号线-宜宾道392m,,
继红    东泰金谷 距1号线-医大一院563m,24.414425844197165,116.21309209530831
布达拉宫广场    嘎玛贡桑住宅区,29.657253391022504,91.15611878809207
乐从    保利天寰 距3号线-大墩989m,22.96418785602284,113.09569556810916
渝北黄泥磅    伟岸摩登堡 距3号线-郑家院子339m,29.60615813899437,106.53675732478364
果园    长城国际 距八通线-通州北苑1488m,39.903923778112734,116.32356949528558
徐泾    西郊家园(青浦) 距2号线-国家会展中心963m,30.963493360390036,121.16018901192187
蔡甸城区    恒瑞佳园 距4号线-临嶂大道383m,30.580548977544872,114.03627202610356
桥南片区    百捷中央公园御府,46.80766769805838,130.3713399506807
傅家坡    佳兆业广场天御(商住楼) 距4号线-梅苑小区711m,29.575904877894363,105.43384081661809
西湖三墩    龙湖紫金上城 距2号线-三墩153m,30.297937002589514,120.10554546522609
祖庙    保利同济府 距广佛线-同济路195m,23.035877066848766,113.12484710901768
马街    融创文旅城归海花园南区,30.975364787050616,103.61598856632013
白龙路片区    巨和美术 距5号线-白龙寺652m,34.015759132808405,108.75259918428566
解放碑    两江嘉苑 距6号线-小什字872m,29.56866074754047,106.59089173005246
安海    翰墨学苑,24.72299352442274,118.48286119781599
余杭三墩    亲亲家园一期 距2号线-墩祥街638m,30.341446924630745,120.09675069496119
人和    同舟世纪苑,29.63310260222568,106.54354546019809
布达拉宫广场    嘉和丽景,41.16511618909607,121.34572422347776
城关    城关,36.0631814753695,103.83147490052859
海伦国际    海伦堡海伦国际海乐荟,47.47043887638964,126.97987750794978
龙华中心区    壹成中心第十区 距4号线-龙华1158m,22.657410791068465,114.0288450908832
闸弄口    同方国际 距4号线-新塘828m,30.29567862123933,120.19753608165317
哈西    壹品新境 距3号线-凯盛源广场1004m,45.71526089145673,126.5982048340541
三森国际家俱城    启航029小区 距2号线-三爻703m,23.319370992623988,113.33294011931865
江岸周边    跃进家园D区 距8号线-中一路1183m,30.645143598635705,114.2799886889297
花果园    花果园B北区 距3号线-松花路451m,26.570062524642587,106.67867953429156
世纪城    金阳世纪城龙泉苑东区 距2号线-百花大道1670m,39.95937024328548,116.28668677782635
太华北路    凤鸣华府(未央) 距8号线-市第三医院站217m,30.338515685933746,103.27490151502873
琉璃厂    东方阳光城(B区) 距6号线-琉三路333m,30.595867682449047,104.10107039763894
李七庄    美域兰庭 距10号线-昌凌路站586m,39.07370975502789,117.15139188884798
区政府    晓风印月公寓 距1号线-滨和路757m,40.15606203259834,116.66728400036311
大江东    兴耀湖境观岚湾 距7号线-启成路1272m,22.554770664607698,114.10155636426167
中山北路    城西环路拓改工程南二区,24.927094789443036,118.59519061874906
堆龙德庆    堆龙德庆,29.651625675009356,91.00996313420868
活力岛    发现岛汇萃商业广场 距4号线-活力岛832m,31.380859390382646,120.6064237294462
淞宝    宝钢五村 距3号线-友谊路951m,31.395758196414494,121.50480775132573
开发区    明怡花苑 距7号线-明星路1034m,35.804963883185884,114.99633702802856
布达拉宫广场    东城金座,39.93482727239599,116.4224009776628
鱼化寨    鸿锦城天逸 距西安高新云巴线-鱼化寨1332m,34.23438167675604,108.85377578302725
九宫庙    中冶城邦国际 距2号线-新山村1782m,29.4823118412674,106.49057471988651
八匹马    富力新天地 距2号线-观山西路719m,23.131151797575086,113.39270752894701
南汇周边    远星铂雅华庭 距16号线-临港大道882m,31.06285224949284,121.79462689021275
工农大街    润园翡翠城 距3号线-工农大街1321m,45.73012605448956,126.57772580402082
柯木塱    柯木塱背坪社下东街小区 距6号线-柯木塱176m,23.200689879269717,113.40427491916464
拉萨火车站    顺通冈仁国际,29.628349680141007,91.09024317048952
绿岛湖    绿岛映月湾花园,30.390452979511394,103.4974403559655
黄河大道    中山尚郡 距1号线-留村1002m,22.5223146707905,113.39942236263188
平湖    融湖中心城(二期) 距10号线-禾花站728m,30.682240998057836,121.02257525525401
吴门桥    东大街241号小区 距5号线-南门站545m,28.174878634729424,113.03531596327593
城关    城关,36.0631814753695,103.83147490052859
城关    罗堆中路,29.655591497678667,91.08467062209075
电视塔    华城国际 距2号线-三爻834m,24.06855845291052,115.63236579009241
大石坝    首创鸿恩国际生活区(三期... 距5号线-大石坝979m,29.57628040080443,106.50026303463899
三森国际家俱城    启航029小区 距2号线-三爻703m,23.319370992623988,113.33294011931865
进港大道    乐昌一二三街自建房 距4号线-大涌680m,25.135591561194918,113.35457868209694
科技路西口    都市春天 距3号线-丈八北路761m,30.114235152277878,119.17770259211345
乐松    南郡凤凰湾 距3号线-肿瘤医院1695m,30.242041098117458,120.26247000561138
纸坊    万科保利联投理想星光,33.73069056927395,105.49379948742562
同乐    中海寰宇珑宸 距14号线-宝龙站1903m,32.253483429739,118.36657942848989
九二路    玉浦花苑(一期),23.459769209297733,116.40461550116099
布达拉宫广场    德吉花园,41.16511618909607,121.34572422347776
丈八北路    鱼化雅苑 距3号线-鱼化寨1383m,34.28535142725812,108.82625781067898
容桂    龙光尚街,,
黄河大道    赵村新村小区 距1号线-留村1283m,31.332681019934736,121.18231921731292
拉萨火车站    锦庭苑世纪城,29.671537311361973,90.97403199178802
沙井    星河荣御 距11号线-马安山1887m,28.702111926799503,115.863089361946
布达拉宫广场    八一北路当巴社区16号院,41.16511618909607,121.34572422347776
车陂    阳华国花苑 距21号线-棠东1947m,23.119957617821548,113.40644792019255
九一路    国泰观邸,34.81681168754865,113.69828053559957
布达拉宫广场    东城金座,39.93482727239599,116.4224009776628
南口    金隅旺合园,40.52905705710416,81.285615734742
钱江世纪城    阳光城檀悦 距7号线-兴议1556m,26.60990794597814,106.63966199380076
布达拉宫广场    尼吉苑小区,41.16511618909607,121.34572422347776
会展城    中天金融城A10组团学海... 距1号线-阳关1331m,30.243064762160113,104.85069448808281
金融高新区    千灯湖C+ 距广佛线-千灯湖652m,39.68181097563757,118.1863173601081
布达拉宫广场    晨曦花园(一期),41.16511618909607,121.34572422347776
布达拉宫广场    兴宝公寓,41.16511618909607,121.34572422347776
大石    洪昌工业路自建房 距3号线-大石823m,22.929324858552793,113.09608803778634
泛亚科技新区    西城林语华郡苑 距4号线-大河梗站550m,39.91812360584148,116.37251358116619
空港新城    爱加欧郡(2期) 距10号线-鹿山1282m,40.111317977255055,116.55039765520193
祈福    祈福缤纷汇 距22号线-市广路785m,22.97853548274284,113.3382957269368
荔城    创基丽江国际(一期-二期... 距21号线-增城广场1223m,25.43975447880629,119.01948169064262
白云公园    东方广场 距2号线-白云中路17m,23.188692433800064,113.2777499355843
果园新村    旭日里,39.22442359090396,117.14340065286177
电视塔    名城雅居 距2号线-电视塔583m,31.062141085248943,121.3991072860359
滇池路片区    岚福苑 距5号线-广福路西口1298m,34.015759132808405,108.75259918428566
莲花片区    云南省招考院家属区 距4号线-小菜园站764m,24.884725037412892,102.8207320720356
鼓楼片区    昆明桃园新村 距2号线-穿心鼓楼449m,25.06013173413451,102.72355598708425
之江度假区    钱塘湾 距6号线-之江文化中心站1809m,30.307422877692797,120.33145825182777
空港    空港圣地 距3号线-空港广场512m,29.74065560229628,106.64265164436753
老余杭    大华海派风范茗园 距5号线-金星1831m,31.112648996870185,121.06100512429308
北滨路    国兴北岸江山(东区) 距9号线-李家坪682m,29.56433671470297,106.51960418107628
布达拉宫广场    德康鑫居,41.16511618909607,121.34572422347776
道里周边    民安小区(道里) 距1号线-西大桥1252m,33.01137317146153,112.57084953919404
电子城    北沈新世纪(南区) 距8号线-山门口站1269m,34.19825481141029,108.90300157751577
南岸区政府    鲁能领秀城一街区(商住楼... 距6号线-茶园1784m,29.499029252740552,106.63743895715595
千灯湖    万科金色领域(商住楼) 距广佛线-礌岗479m,31.389377403569366,121.22579738365695
师大    警苑社区 距2号线-阳明祠191m,31.167917854112982,121.42530995945646
拱墅三墩    都市水乡水滟苑 距2号线-墩祥街643m,30.33871166045002,120.09906077741066
康桥    康和嘉苑 距4号线-平安桥1184m,40.07909807267312,116.44173197325422
钱江世纪城    山水时代大厦 距2号线-钱江世纪城598m,26.60990794597814,106.63966199380076
铜梁城区    东宏时代广场,23.08816223145329,113.2962851223183
花果园    花果园C区 距3号线-花果园505m,30.706157357809133,104.07821849360116
布达拉宫广场    嘎玛贡桑住宅区,29.657253391022504,91.15611878809207
光明    龙光玖龙台(商住楼) 距6号线-凤凰城站478m,22.750382015120227,113.9422959601114
长河    长兴苑小区 距5号线-聚才路1167m,31.38824192933789,121.7178128758851
三棵树    北树小区 距1号线-哈尔滨东站1120m,33.88210526242402,118.2721553922668
西山区政府    昆钢铁合金厂宿舍 距3号线-西部汽车站773m,25.0451810089669,102.66401198603616
城东    润柏大都会(商住楼),36.61197784706617,101.8161126549882
经济开发区    云大知城3期牛津花园 距4号线-羊甫头站1497m,27.44156733215448,112.16743444425771
桐庐城区    滨江嘉品美寓,30.214332950144062,120.21847118139375
布达拉宫广场    八一社区,27.626863325206187,113.85311218911025
布达拉宫广场    海升公寓,41.16511618909607,121.34572422347776
布达拉宫广场    顺通城市花园,41.16511618909607,121.34572422347776
京溪    广信春兰花园 距3号线(北延段)-京溪南方医院279m,22.983796949534813,113.32574424303334
汽博中心    汇祥幸福里,29.648292570114712,106.57927394489575
长安医院    恒隆香樟园 距8号线-市图书馆站1024m,31.047318863258397,121.76974903775832
铜元局    金辉城花样派 距3号线-铜元局1247m,29.53337512732277,106.54668593625995
雁环中路    联盟新城,34.79202453155224,113.73009878625463
东方广场    旭辉公元,43.887267083424334,125.43554751541559
花果园    花果园一期(商住楼) 距3号线-松花路388m,30.706157357809133,104.07821849360116
同心路    云城苑北区,31.02273500357388,121.242087435436
钱江世纪城    滨江观品 距6号线-博览中心站454m,30.214332950144062,120.21847118139375
布达拉宫广场    琅赛花园十区,41.16511618909607,121.34572422347776
石路    利景华庭 距2号线-广济南路342m,31.00305542400317,104.04233325458021
新街    虹云之城 距5号线-姑娘桥775m,30.178107231355934,120.34798599524474
平湖    威凤山庄 距10号线-双拥街站1734m,30.682240998057836,121.02257525525401
布达拉宫广场    翠湖文景居,41.16511618909607,121.34572422347776
大营坡    天誉城 距1号线-南垭路786m,26.667281748641294,106.18427643601177
布达拉宫广场    世邦春天花园,41.16511618909607,121.34572422347776
弹子石    康田龙腾湾,29.59762234138185,106.61057234614185
盐田    佳兆业西山吓庭苑 距8号线-洪安围站755m,22.592810515576634,114.26598642678961
双阳街道    南益刺桐春晓,24.984155798566363,118.65688300725412
北二环西段    荣城名苑 距8号线-大风阁站1192m,31.692975973201513,120.28101022286236
新螺蛳湾    万科公园里(二期) 距1号线-南部汽车站1144m,24.96550968275435,102.78661972878042
桥南片区    万科金域滨江(二期),46.80766769805838,130.3713399506807
江汉周边    焕英里 距1号线-友谊路338m,30.585410371672243,114.28597760193418
大沥    广佛智城天街,23.123668038961373,113.15066872123238
镜湖大道    绿地空港国际中心 距9号线-清塘1212m,23.374006074596977,113.26911973489169
里水    时代家(商住楼),23.186468282822783,113.15994507307808
南湖新区    华颐春天 距2号线-云峰大道506m,26.679527184496713,106.62972996876353
布达拉宫广场    德康鑫居,41.16511618909607,121.34572422347776
火车站    春江花月 距3号线-西三教1255m,37.321127677461426,97.3911088501482
五大花园    双景秀庭 距7号线-龙爪堰622m,45.252994440815336,130.1575312918413
渝北黄泥磅    紫荆商业广场 距6号线-黄泥塝326m,29.5942801295232,106.54758675702504
大学城    北麓国际城(A区),29.59383707333217,106.32088022774963
郭杜    挚信樱花园,34.166041593589824,108.88858080967243
盘龙    盘龙金茂悦(商住楼) 距2号线-大堰村1409m,25.069318033622885,102.73593885904357
鱼洞    华熙LIVE023(商住... 距2号线-鱼洞231m,27.461011717589816,105.15850990840914
市南路口    南岳路5号小区 距2号线-贵钢1502m,31.700442461751415,121.0803817538044
布达拉宫广场    西藏阳光都市,41.16511618909607,121.34572422347776
布达拉宫广场    那曲客运公司驻拉萨退休基...,31.475741799723668,92.05175813451636
曲江四小    裴家埪村安置小区,24.688407846380294,113.61150106464875
西溪    西溪新城市 距19号线-西溪湿地北站1174m,34.272724469532555,108.96739103850439
南屏街片区    青年路357号小区 距2号线-东风广场297m,34.015759132808405,108.75259918428566
布达拉宫广场    蜀园(西区),24.14878739174072,120.67644156464537
辛家庙    天香心苑 距3号线-辛家庙354m,34.32731772535735,109.02736155502829
中央公园    新城朗隽大都会二期璟誉 距9号线-兰桂大道462m,40.08196959964644,116.25386772500262
花果园    花果园R区1区 距3号线-五里冲745m,26.570062524642587,106.67867953429156
南滨路    东原锦悦 距3号线-南坪909m,39.70773634642217,116.32962623035606
拉萨火车站    顿珠金融城融晖园,29.641159087347475,91.10190236753022
大商汇    万达广场国际公寓,24.987809580206612,102.71448696415018
浮桥    中骏四季阳光(商住楼),24.91391332529145,118.56121167386206
沙河    高教大楼 距昌平线-沙河高教园1460m,36.91064259678563,114.55348687432814
临平北    咏翠芳华轩 距9号线-五洲路站716m,30.42321349473682,120.32200969481272
汽博中心    奥林匹克花园红城 距3号线-金渝1345m,29.648292570114712,106.57927394489575
赵陵铺    康太家园,38.106043550432624,114.45899923807497
临平北    顺达花苑东区 距9号线-荷禹路站708m,30.440266801707278,120.2845238550341
布达拉宫广场    阳光花园,41.16511618909607,121.34572422347776
金沙洲    万益广场(一三期),30.01780285777434,106.00752019670803
丁桥    龙湖名景台(公寓住宅) 距3号线-同协路471m,40.03244772529112,116.44446533726
高新区    鑫金花园(昌源北路) 距4号线-海屯路站1907m,30.586452710935603,104.03603182108881
学府大道    万友七季城(B区) 距3号线-六公里669m,29.506260664604923,106.5743653340992
市政府    滇池明珠广场 距1号线-驼峰街480m,40.15606203259834,116.66728400036311
夏园    万科黄埔新城 距13号线-夏园1733m,23.08943525024118,113.52477936938854
花果园    花果园B北区 距3号线-松花路451m,26.570062524642587,106.67867953429156
红旗河沟    帝豪丽都(江北) 距3号线-红旗河沟544m,35.274944500346095,113.90947431692861
布达拉宫广场    世邦拉萨印象,29.65408878639459,91.07893018039223
大商汇    盘龙雅苑六号苑 距5号线-金家河1851m,24.987809580206612,102.71448696415018
星桥    永西洪福雅苑,22.566903409127935,113.89991112141755
五桥    乐居苑,30.774625829174116,108.46580760445892
布达拉宫广场    哈达幸福小区,45.13145986067662,124.86526460812723
南安市区    保利香槟公馆,24.970246122274176,118.421611314605
拉萨火车站    天知雅砻阳光花园,29.631912077651055,91.07140696157921
铁心桥    银杏山庄 距S3号线-铁心桥1354m,31.137841319283652,121.33198482036374
新螺蛳湾    俊发澜湾俊园 距4号线-塔密站1042m,24.96550968275435,102.78661972878042
八匹马    富力新天地 距2号线-观山西路719m,23.131151797575086,113.39270752894701
布达拉宫广场    拉鲁桥自建房,41.16511618909607,121.34572422347776
布达拉宫广场    顺通城市花园,41.16511618909607,121.34572422347776
拉萨火车站    金马国际,29.624990680057984,91.08967238716865
开发区    金珺澜庭(二区) 距2号线-建设三路1469m,35.804963883185884,114.99633702802856
石湾    苹果公馆 距广佛线-季华园549m,27.29295373836466,112.9665329798913
红旗    西美花街小区,35.310135512691105,113.88141583415499
桥北    迎江雅居 距宁天线(S8)-长江大桥北站614m,30.523606587405695,117.08869106255703
科技园    融创玖境国际(商住楼) 距1号线-新寨723m,39.95144483203103,116.44412568794667
新亚洲体育城    万景园 距1号线-星耀路1002m,24.95271919600373,102.77649061551435
省二院    中华绿园 距3号线-市庄218m,43.895959109274344,125.30001504278381
陈村    保利阅江台 距2号线-花卉世界1766m,34.4885221674803,107.2714219458505
丁字沽街    风采里 距1号线-洪湖里1023m,39.173781136025724,117.16653920618779
布达拉宫广场    西藏自治区政协第二生活区,41.16511618909607,121.34572422347776
金融高新区    万科金域中央(商住楼) 距广佛线-金融高新区1771m,39.68181097563757,118.1863173601081
黄河大道    中山尚郡 距1号线-留村1002m,22.5223146707905,113.39942236263188
五角场    怡福苑 距10号线-国权路968m,31.309473543606742,121.53290935276381
西南    恒福丽铂公馆,23.10584585262964,113.22866382761877
横泾    WE加社区腾讯智慧公寓P...,31.17392387838608,120.5419215311161
松北新区    军安绿色家园 距2号线-龙川路744m,30.551582337542943,104.098123596244
医大一院    铁岭街79号小区 距1号线-医大一院260m,41.665666621507036,123.4326419825515
西湖三墩    银城天境福邸(商业) 距2号线-白洋1130m,30.350112876864088,120.07082577760433
沙河    顺沙路19号院3区 距昌平线-沙河1553m,41.15697785692758,123.04172448733283
北市区    俊发龙泉俊园 距2号线-羊肠村1858m,23.093129653411445,113.30301459838299
城关    城关,36.0631814753695,103.83147490052859
花果园    花果园S2区 距3号线-五里冲889m,30.706157357809133,104.07821849360116
大坪    袁家岗居住区 距2号线-袁家岗718m,29.535762832726796,106.52355367108014
安海    上悦城,24.72299352442274,118.48286119781599
万达    万达广场C区 距1号线-北宋1875m,31.330109859725926,121.45351702196142
季华六路    星星凯旋国际花园(北区) 距3号线-镇安443m,23.020284553776346,113.15519636066226
布达拉宫广场    德康鑫居,41.16511618909607,121.34572422347776
金泘沱    中海凯旋门 距4号线-金滹沱529m,39.92297763515666,116.39409034053254
丈八西路    美寓华庭 距西安高新云巴线-东滩770m,39.73937319176852,116.18726007821822
新螺蛳湾    国际银座 距4号线-玉缘路站682m,24.96550968275435,102.78661972878042
万博    锦绣香江布查特官邸三期 距7号线-汉溪长隆1176m,22.561019317240294,113.94979205009803
金沙洲    时代天境,30.706543852775024,104.0356747446486
棕树营    北大资源博泰城 距3号线-市体育馆397m,25.04474382216746,102.69323637952151
百家湖    诚基名苑(商住楼) 距1号线-百家湖664m,39.12327234467843,117.20878283126946
月牙湖    银龙花园(三期),32.00977952233249,118.86676662628116
乐从    泰禾佛山院子 距广佛线-新城东1071m,22.96418785602284,113.09569556810916
科技六路    高新水晶岛 距8号线-木塔寺西站注536m,34.290565890774104,108.93001586996458
凯旋/采荷    居安坊 距4号线-城星路943m,39.88303978161165,116.65201586093221
布达拉宫广场    泽巴姆家园公寓,41.16511618909607,121.34572422347776
江浦街道    正荣润锦城,32.07681938153722,118.67909883744458
勒流    龙光玖龙府(勒流),22.855805913225794,113.1442231995393
华岩新城    财信新界(商住楼) 距直快列车-金建路213m,29.445483501413406,106.44884447641758
农业园区    金鹏两江时光 距9号线-宝圣湖1643m,42.66037494317727,128.11242705884513
市图书馆    刚家寨A地块1-2号楼 距8号线-市图书馆站525m,34.32620402352119,108.95513303100687
北站    电大街院,,
江浦街道    江山大境 距10号线-雨山路1529m,32.06287188453919,118.62646478202065
绿岛湖    华宝世家雅苑,23.011757141225868,113.04839097963045
高柱    橙悦园 距3号线-柏林庄377m,38.07881225541794,114.48275807135562
布达拉宫广场    哈达滨河花园(东区),41.79034308241782,123.46597801019622
泥城    丽都华庭,30.90826150591845,121.81401834176499
堆龙德庆    堆龙德庆,29.651625675009356,91.00996313420868
罗泾    罗宁欣苑,31.489225947335576,121.3306829960187
佘山    佘北家园康桂苑,31.134696830914375,121.21771047813395
未来科技城    北大资源未名府(公寓住宅... 距5号线-五常650m,34.04230417943648,113.83233805875409
拉萨火车站    世邦金色两岸,29.63596783969224,91.02556858735339
五里店    蓝色经典小区 距环线-渝鲁1006m,29.60014197906707,106.57076214086932
拉萨火车站    圣地财富广场,29.637407098361823,91.08554305640176
金融高新区    保利维塔二期,39.68181097563757,118.1863173601081
世纪城    万科悦城 距2号线-茶园1233m,26.60990794597814,106.63966199380076
知识城    合景天峻 距14号线(知识城线)-旺村604m,23.328462988042503,113.53827101983842
万达广场    万达华府B区,39.912079085025304,116.23189795697564
群力    恒祥空间 距3号线-群力第五大道1613m,30.304217084576504,105.84792149065008
人和    万科缇香郡 距5号线-人和437m,29.63310260222568,106.54354546019809
同和    星汇云城,23.214296417617128,113.34343098021345
丰庆公园    西桃园小区 距5号线-丰庆公园615m,43.6648786567875,124.95507255407415
浒墅关    阳山花苑(五区),31.379606584912004,120.49291797741074
布达拉宫广场    堆龙德庆县退休基地,29.651625675009356,91.00996313420868
西永    西著七里二组团(商住楼) 距1号线-微电园1201m,29.619333983165518,106.36252899490884
堆龙德庆    堆龙德庆,29.651625675009356,91.00996313420868
蠡口    书香苑(相城) 距2号线-蠡口521m,31.405316891279426,120.6217869994306
平湖    白虎头小区 距10号线-禾花站1729m,30.682240998057836,121.02257525525401
志华商城    志华商城 距2号线-江北大学城692m,45.876316048717335,126.55677633139193
拉萨火车站    拉萨铁路小区,29.63233400953728,91.08269596691937
世纪城    探春苑 距1号线-珥季路1659m,39.95937024328548,116.28668677782635
布达拉宫广场    文君缘出租房六区,30.410688827287494,103.47119896557747
巫家坝    万科公园城市(二期),30.597274618375135,103.5673535873655
大营坡    天誉城 距1号线-南垭路786m,26.667281748641294,106.18427643601177
乐松    凯旋广场(商住楼),30.242041098117458,120.26247000561138
布达拉宫广场    嘎吉四区,26.456655442604365,102.63100860093266
布达拉宫广场    顺通城市花园,41.16511618909607,121.34572422347776
蜀山    昱泊名府(公寓住宅),31.85836377935724,117.0587659009337
临安城区    北樾府 距16号线-临安广场1818m,40.14572174386764,117.12066049802945
建华    河纺小区(北区) 距1号线-北宋254m,47.360554871046276,123.96135010108006
前卫营    润城(7区),25.008492430145942,102.71667020586091
兴关    碧桂园星作 距1号线-贵阳火车站730m,40.32066299955368,116.66153475526869
会展城    中天会展城SOHO公寓 距1号线-国际生态会议中心935m,30.243064762160113,104.85069448808281
礼嘉    龙湖两江新宸森屿(商住楼... 距6号线-金山寺845m,29.680102632100947,106.5096000221066
金融高新区    万科金域中央(商住楼) 距广佛线-金融高新区1771m,39.68181097563757,118.1863173601081
上坊    祈泽佳苑,28.688331376304408,117.03865210617113
龚家寨    龚西路小区 距2号线-白云中路1975m,26.693386862607003,106.65448690928812
潼南城区    云廷檀香山,31.367876717300486,120.98425839304811
哈西    辰能溪树庭院(南区) 距3号线-哈西大街782m,45.71526089145673,126.5982048340541
明光南路    合悦华府二期,34.38163421030629,108.8892206726872
珠江路    电车小区(香坊) 距2号线-珠江路693m,36.05238815574124,120.22904639317942
陈家祠    和安街小区 距1号线-陈家祠663m,20.638979971490322,110.386908171433
怀特    怀特华堂聚瑞二期 距2号线-槐中路1550m,30.862767910954112,104.43164700497192
铁机路    东湖景园C区 距4号线-铁机路637m,30.591368131145206,114.381950406687
未来方舟    中天甜蜜小镇5组团,30.243064762160113,104.85069448808281
西渡    文泽苑 距5号线-西渡954m,30.996125071139172,121.44623823207517
临平    理想家园 距9号线-邱山大街站1900m,30.43074395735021,120.30375720481659
金沙洲    恒大御景半岛,39.86084929296107,116.55951294087278
林和    中怡城市花园 距APM线-林和西528m,23.149567052614582,113.33396822997447
良渚    保利融信和光尘樾(商住楼... 距2号线-良渚274m,30.385969441723777,120.05360578258814
郭杜    早安林庄 距6号线-仁村1255m,34.15737935908712,108.86226809382691
北滨路    阳光城天澜道11号 距6号线-五里店730m,40.162528800823154,117.11393838806772
兴隆    美丽嘉园 距2号线-兴隆大街622m,31.368545326273864,121.26412457637623
金融高新区    A32万科里 距广佛线-金融高新区604m,39.68181097563757,118.1863173601081
融汇    融汇半岛爱窝 距18号线-重庆理工大学1591m,39.68334602348123,116.32733860554434
江都路街    靖江里 距5号线-幸福公园293m,31.03168258122544,121.77893915227816
百花村    百花村社区 距4号线-百花村239m,31.156151102195874,103.99489778297306
湘江道    融创臻园壹号,39.95144483203103,116.44412568794667
大雁塔    后村嘉园 距3号线-大雁塔714m,39.84886488836161,116.37304753396131
溧水区    顾家欧亚达商业广场 距S7号线-中山湖538m,31.65739995751265,119.05233202090218
太行南大街    恒大绿洲,40.006759438318355,116.39001365046715
大学城    富力院士廷(商住楼) 距1号线-陈家桥646m,23.157829113169957,113.3437319125592
川师    望江锦园 距8号线-净居寺1248m,30.572567241710313,104.19994472918899
天塔    体院宿舍 距5号线-肿瘤医院883m,39.09136715701856,117.19176497236624
市区    菱塘北村,36.70705058725748,116.99590273311486
胜北    神州嘉园花香维也纳 距2号线-建和桥1231m,31.990730797663037,117.69121349353668
金沙洲    金沙大都汇(一期) 距6号线-沙贝308m,27.465354872613517,106.22644163900851
商业片区    四方生态花园 距2号线-龙泉驿1769m,34.015759132808405,108.75259918428566
土贤庄    永邦天汇,31.178040501457275,120.69835155431815
谢家湾    丹泰红馆(商住楼) 距2号线-袁家岗572m,29.524384170611416,106.52751861193877
拉萨火车站    泰玺华庭,29.63222507342514,91.08639536866934
中北    云锦世家(北区),39.119324635869575,117.08008412797429
北市区    德润朗悦湾 距2号线-司家营1252m,30.94580766153111,120.38936131822048
布达拉宫广场    尼吉苑小区,41.16511618909607,121.34572422347776
枣园    美美景园 距1号线-皂河334m,34.2753120018956,108.88035161255662
市府路    懿府 距1号线-中山西路173m,31.024509469840535,103.65466582869664
建华    上东城(南北区) 距1号线-北宋862m,40.08660524470657,116.31322739377977
二仙桥    源滩国际社区(商住楼) 距8号线-十里店792m,30.866506787038453,103.92284936920639
赤岗    up智谷 距8号线-赤岗1438m,23.093555086611513,113.33703989583427
滇池度假区    听涛雅苑,25.024065182021296,102.69679178289829
容桂    碧桂园凤凰湾凤怡苑,22.803627913665675,113.3456211388766
丰庆公园    西桃园小区 距5号线-丰庆公园615m,43.6648786567875,124.95507255407415
汇景新城    汇景新城棕榈园,30.82496681959714,104.1817196375109
古田    省柴小区 距1号线-古田二路497m,23.770515013561774,113.886517026946
南屏街片区    青年路357号小区 距2号线-东风广场297m,34.015759132808405,108.75259918428566
大行宫    良友里小区 距3号线-大行宫792m,32.04812711598138,118.79845372614717
燕子矶    紫御东方(一期) 距1号线-笆斗山1215m,32.14258793123605,118.82676490226075
新塘    顺欣花园,23.152484559707073,113.62383381116061
布达拉宫广场    豪俊出租房,41.16511618909607,121.34572422347776
建国公园    建国北头道街小区(建国北... 距3号线-河松街787m,31.061787743818673,120.92072025619132
小寨    郝佳城市花园 距3号线-吉祥村556m,36.850733615452555,114.89769365082513
布达拉宫广场    幸福北花园,41.16511618909607,121.34572422347776
韦曲    风憬天下一期,34.172880910163826,108.92092151481211
小市    汽轮四村 距3号线-小市385m,32.10499719901193,118.78987805259617
布达拉宫广场    哈达幸福小区,45.13145986067662,124.86526460812723
布心    观山盛苑 距5号线-布心1091m,22.583834713026135,114.14600811410273
三山新城    保利诺丁山,31.23060222589733,118.24102048261318
拉萨火车站    凤凰城,29.62936247542549,91.076709030189
宝善    工人新村 距5号线-建国北路721m,29.817882504687777,106.1771019393976
布达拉宫广场    领秀翡翠湾,41.16511618909607,121.34572422347776
宝体    君逸世家花园 距1号线-宝体333m,30.553380923337237,104.06566296731874
狮城国际广场    石狮金辉城,24.746400834029217,118.63045881170355
拉萨火车站    祥和御府,29.62936247542549,91.076709030189
天星桥    升伟朝凤苑 距环线-重庆图书馆583m,29.529313469766954,106.52392413227233
东外滩    滨江晶典 距18号线-平凉路254m,31.276476571793008,121.53951126944831
天河智慧城    天河新力 距21号线-神舟路1754m,23.17738368154778,113.41742449487644
电视塔    象牙宫寓 距8号线-电视塔站485m,23.16532797096623,113.32187497171148
城关    城关,36.0631814753695,103.83147490052859
南坪    亚太商谷 距3号线-工贸796m,29.54010813286207,106.56568599609521
大营门    宝德里 距5号线-下瓦房678m,39.11493860660459,117.22095217601313
曹路    盛世春晓苑 距9号线-民雷路1167m,31.282243557146025,121.67350710067471
公明    兆邦基端慧苑(商住楼),22.76758943465872,113.91142218787971
拉萨火车站    明耀国际,29.62936247542549,91.076709030189
石狮泰禾广场    石狮碧桂园,24.738158500882612,118.6545881959991
金融高新区    保利天汇,39.68181097563757,118.1863173601081
犀浦    中铁伊萨贝拉 距有轨电车蓉2号线-国宁336m,30.773970830261472,103.9752070160249
庞各庄    大兴河马科技小镇,39.63570610851967,116.329368955658
白龙路片区    昆明理工大学白龙苑 距5号线-白龙寺613m,34.015759132808405,108.75259918428566
新阳路    共乐小区 距3号线-公路大桥1538m,22.58644511121053,113.86596999519251
拉萨火车站    双创广场,29.63316609542391,91.08965100749754
十里铺    北城山水,34.37397894628955,107.20415090044699
西斜七路    崇立苑 距3号线-太白南路539m,30.6332578527326,104.00315743264566
布达拉宫广场    城福苑,32.094782150976705,112.22541118584287
白塔路    七彩之门 距2号线-穿心鼓楼986m,39.92301761417885,116.35270477687399
市区    中南雅苑(常熟),31.679566585005922,120.78762982708841
西兴    滨康天曜城 距5号线-滨康路654m,30.19109725436644,120.22527395919028
光明    佳兆业云峰汇花园 距6号线-光明大街站765m,39.92122994788037,116.54594188021134
拉萨火车站    双创广场,29.63316609542391,91.08965100749754
浮桥    静江佳苑,31.607960068642246,121.21733608326178
江东花园    俊发城文熙苑 距2号线-羊肠村1165m,29.707527612097593,107.4242067225498
龙归    南村中路小区 距3号线(北延段)-龙归986m,23.288596156827673,113.30613432358754
建华    乐城半岛 距1号线-北宋927m,47.360554871046276,123.96135010108006
大溪沟    溪江悦 距2号线-大溪沟546m,30.72317221184354,103.48097657190083
西藏北路    光华坊 距8号线-中兴路374m,25.04594186737146,102.71489533383487
岗厦    岗厦村 距10号线-岗厦北站406m,22.542237034377628,114.0757448130687
哈西    爱达九溪 距3号线-凯盛源广场719m,45.71471962544518,126.59035570999951
珠江新城中    冼村回迁房 距18号线-冼村682m,23.126715483812998,113.35797975658716
三堡    三堡家园北区 距9号线-江河汇站620m,34.13613193523068,117.18002555663965
行政中心    白桦林间 距4号线-凤城九路453m,39.83237004026947,115.60794788534429
中央公园    鲁能泰山7号十九街区 距5号线-鲁家沟866m,40.08196959964644,116.25386772500262
江浦街道    招商雍宁府 距10号线-雨山路680m,32.05493968942483,118.6230347820919
世纪公园    华兴小区 距3号线-东王521m,30.623608175562886,104.02625467089804
汇君城    田家庄小区,37.886432541493605,115.19519869165553
水头镇    中骏璟峰,24.680817479570727,118.44267082965176
布达拉宫广场    拉百小区,41.16511618909607,121.34572422347776
嘉定新城    绿地嘉域生活中心 距11号线-嘉定新城360m,31.367355254466144,121.28275112078673
青山湖    大华西野风韵(公寓住宅),28.68759600617345,115.96855240505471
北厂    星耀南城,27.576240966559514,116.64339884970856
亦庄    大雄城市花园 距亦庄线-亦庄文化园1160m,39.80725975357065,116.50087155718143
里水    长信公馆,23.198412118405987,113.17536969732372
爱联    恒大城市广场 距3号线-爱联249m,22.699770351688535,114.24013795524019
照母山    洋丰圣乔维斯 距5号线-重光1130m,29.629132980557177,106.51013127998503
北滘    美的云悦江山西园 距7号线-美的大道1071m,22.911640288999468,113.21258254204557
中梁山    永缘城市交响,29.488819247839817,106.44247001069034
三堡    江河鸣翠(公寓住宅) 距6号线-三堡站478m,34.13613193523068,117.18002555663965
电子城    高新领域 距8号线-山门口站192m,34.20215268318266,108.91228143275605
和平村    南站新村 距2号线-塘子巷404m,31.053324476366836,121.44450028040501
银湖    梓树花苑(公寓住宅) 距6号线-银湖站1799m,31.259802893044768,121.61688798234741
太平桥    黎华小区 距1号线-太平桥535m,30.996364975277896,120.73132385806188
瓜沥    融创港印中心 距19号线-永盛路站1840m,30.189189142686587,120.42280451371255
知识城    时代天韵(知识城) 距14号线(知识城线)-何棠下869m,23.328462988042503,113.53827101983842
科技园    滨湖俊园 距1号线-白鹭湖1946m,31.534639699974193,120.29154752615551
世纪公园    华兴小区 距3号线-东王521m,30.623608175562886,104.02625467089804
吴井路    格林威治 距4号线-菊华站1337m,39.87903207443502,116.35279101420296
福利社    阳光华庭雅园 距环线-海棠溪1666m,29.542156948738874,106.58368462494828
定淮门    清江西苑 距4号线-龙江1231m,33.59495693345757,119.03049142920753
徐官屯街    景瑞花园,31.307008957736823,121.48479458253003
荣昌城区    财信中央大街,31.233264128116122,121.51339905539261
区政府    绿地旭辉城 距6号线-奥体中心站293m,40.15606203259834,116.66728400036311
燕子矶    吉祥花园 距1号线-燕子矶1147m,32.14258793123605,118.82676490226075
布达拉宫广场    雅素公寓,41.16511618909607,121.34572422347776
宝洲路    中升雅园,31.64219869357211,120.80018077201271
黄土坡    广基馨悦尚居 距4号线-小屯站1041m,26.604567547707493,104.83703187837071
布达拉宫广场    格桑林卡,30.014426093496454,97.1814708441319
西北湖    八一二小区 距3号线-菱角湖261m,30.611868185278382,114.28087019612664
白云大道北    东湖映月 距14号线-夏良520m,39.92239821336466,116.33100009880302
区政府    汉峰峰公馆 距6号线-江汉路站826m,40.15606203259834,116.66728400036311
徐泾北城    招商虹桥公馆(三期) 距17号线-徐盈路1268m,30.963493360390036,121.16018901192187
拉萨火车站    长兴国际,29.628871776452883,91.08775387609164
西南    恒福丽铂公馆,23.10584585262964,113.22866382761877
长安医院    海璟台北湾(南区) 距8号线-霸城门站916m,31.047318863258397,121.76974903775832
新宫    南庭新苑南区 距4号线大兴线-新宫1104m,39.82082888330678,116.37011052409645
东山    中天渔安新城B组团,23.284474588758734,120.44229631631192
碧海湾    榕江壹号院 距11号线-碧海湾448m,25.937725373250203,108.5275536987156
黄兴    延吉七村 距8号线-延吉中路689m,28.141121622159424,113.11808403632693
光谷东    光和创谷 距11号线-光谷五路689m,30.541888225692546,114.6110296303808
布达拉宫广场    琅赛十一区(西区),41.16511618909607,121.34572422347776
嘉禾望岗    龙禧中心 距2号线-黄边694m,25.593421718267894,112.37558377831412
新客站    一天下大厦 距13号线-汉中路160m,22.99482601801813,113.27582396857154
龙华区政府    合正观澜汇(二期) 距4号线-茜坑566m,22.707272487986774,114.04735063353539
星河湾    星河湾七期,39.93410154743498,116.52942204188285
西溪    紫金西苑 距5号线-蒋村1194m,23.324664321192294,115.4121235570952
临平    宋都时间名座,30.411896961665473,120.28838899415187
周浦    汇福家园吉祥里 距18号线-沈梅路1844m,31.118069621798544,121.58592923040429
哈西    金爵万象(二三期) 距3号线-凯盛源广场530m,28.455253778206487,119.9191007026401
棠东    城投珠江天河壹品,39.93482727239599,116.4224009776628
黄石    金碧新城 距8号线-小坪437m,30.205207848941598,115.04553290894361
水头镇    中梁海峡一号,24.71210091093897,118.43830910724951
钱江世纪城    澄之华庭 距2号线-盈丰路710m,30.237506005826564,120.26058248607382
垡头    首创繁星,39.84424121857243,116.54406370305108
土贤庄    翰玉门庭,30.24716812413746,120.16411669125712
胥江    枣市新村 距2号线-劳动路1210m,31.29036102032874,120.59780664401119
南屏街片区    青年路357号小区 距2号线-东风广场297m,34.015759132808405,108.75259918428566
金星立交桥    实力北岸 距2号线-金星1398m,37.99363060323053,106.21408824364399
东海湾    海悦府,34.61929975369341,118.68179707770491
世纪公园    华兴小区 距3号线-东王521m,30.623608175562886,104.02625467089804
磁器口    碧桂园摩卡 距1号线-磁器口682m,29.581195081901193,106.462851361949
拉萨火车站    经开锦城苑,29.62862383598655,91.00231073906333
玄武东路    金辉江山铭著 距8号线-米家崖站1006m,39.93050275265966,116.4141169839109
万安街道    豪公馆,24.948181840341093,118.68168171898493
镜湖大道    合和新城 距9号线-清塘819m,23.138385311182805,113.26700251863592
二仙桥    中车共享城锦苑 距8号线-十里店1086m,39.89683482603021,116.19099092066226
姑苏城区    CCB建融家园(平江) 距2号线-平泷路东871m,39.72673487368468,116.43544401434548
拉萨火车站    天知雅砻阳光花园,29.631912077651055,91.07140696157921
云鹿路    碧桂园凤凰岛,31.24602435107175,120.87528405332718
绿岛湖    龙光玖钻广场 距2号线-绿岛湖777m,23.181238419936697,106.76622991638446
布达拉宫广场    三江家园,25.78883038778805,109.6145474722304
体育馆    诚基中心国际公寓 距1号线-营口道281m,40.15283403375312,117.08477301324473
滇池路片区    恒大云报华府,34.015759132808405,108.75259918428566
陈村    万科水晶城(南区) 距2号线-登洲1415m,34.4885221674803,107.2714219458505
广安    谈后小区 距2号线-长安公园774m,30.53921096825393,106.46336937012113
奥南    金穗花园 距7号线-永初路733m,23.096742010836614,113.30310317130623
平洲    依岸康堤花园,23.030561030084368,113.20757403967633
金洲    南沙城(商住楼) 距4号线-金洲1060m,28.28287326472348,112.69466818349146
千灯湖    万科金色领域(商住楼) 距广佛线-礌岗479m,31.389377403569366,121.22579738365695
拉萨火车站    南城碧水湾,29.639335102644996,91.09102397763853
金星立交桥    昆明广场中央(B区) 距2号线-白云路495m,25.07573303961447,102.72714804132583
吴中太湖新城    新希望滨江锦麟壹品 距4号线-天鹅荡路1652m,31.19621641018464,120.62087234476034
桥北    明发滨江新城(三期) 距3号线-柳洲东路626m,31.022963080371614,121.80671134508573
临平北    华立和郡 距9号线-邱山大街站1906m,30.43074395735021,120.30375720481659
金沙洲    时代水岸二期,39.84198889049019,116.43153342096889
金融高新区    万科金域中央(商住楼) 距广佛线-金融高新区1771m,39.68181097563757,118.1863173601081
滇池路片区    金地悦天下 距5号线-金兰路1785m,34.015759132808405,108.75259918428566
布达拉宫广场    西藏旭洋公司小区,41.16511618909607,121.34572422347776
金山新城    绿地金卫新家园(2208...,30.751069566711305,121.3224372700815
嘉定新城    丽景公寓,31.367355254466144,121.28275112078673
东山    天元吉第城 距1号线-龙眠大道1420m,23.284474588758734,120.44229631631192
石坪桥    通用晶城 距环线-陈家坪507m,29.52910456480195,106.5004656025314
福建路    中海凯旋门,32.09090009509682,118.76163847143175
新华路南    和润苑 距1号线-和平医院904m,31.250010922161547,121.07439275096938
新牌坊    佳乐园 距环线-民安大道812m,23.21113050507408,113.28615322430515
南桥    金昊丽苑 距5号线-奉贤新城586m,34.720014009244096,118.00685211476456
照母山    东原星樾,29.629132980557177,106.51013127998503
水上公园    文书苑 距3号线-高柱420m,39.10149901871705,117.1600042132638
钱江世纪城    丰瑞北苑 距2号线-盈丰路1684m,30.237506005826564,120.26058248607382
凤凰城    碧桂园凤凰城凤馨苑,40.46582033258959,124.07432038291391
沙河    翠明新城 距昌平线-沙河1456m,36.91064259678563,114.55348687432814
汾江北    敏捷金谷国际(商住楼),29.612832314080265,106.5804150623847
布达拉宫广场    西藏自治区矿业开发总公司...,41.16511618909607,121.34572422347776
徐东    福星惠誉月亮湾壹号 距5号线-徐家棚403m,30.594273119760192,114.35420103083936
凤城五路    世融嘉城 距8号线-霸城门站1407m,34.33149432836718,108.93223648118524
城关    城关,36.0631814753695,103.83147490052859
航天城    双竹村 距2号线-韦曲南1296m,40.085649091328975,116.27680802230257
北滨路    御龙天峰 距3号线-华新街831m,29.573485933116967,106.5469377312943
城角街    振二街北苑 距1号线-和平医院1744m,40.00111295265103,116.42281078463645
珠峰大街    天山水榭花都(裕华) 距1号线-留村1862m,38.931492883964935,117.44913327385807
花溪公园    腾龙湾A3区 距3号线-中曹司938m,31.118807414139933,120.67476214145668
阅山湖    万科翡翠公园(A区) 距1号线-老湾塘1358m,39.77354406377935,116.3268299849646
区政府    时代滨江丹枫四季 距6号线-江陵路站579m,40.15606203259834,116.66728400036311
华新    西郊半岛名苑,31.232494891468793,121.23427496224627
钱江世纪城    澄之华庭 距2号线-盈丰路710m,30.237506005826564,120.26058248607382
市政府    滇池明珠广场 距1号线-驼峰街480m,40.15606203259834,116.66728400036311
新区    广州融创文旅城(商住楼),23.438597624278948,113.23506937471667
平洲    龙光天曜,23.181238419936697,106.76622991638446
拉萨火车站    海亮世纪新城,29.62306098553846,91.08870796637346
万安街道    阳光国际广场,24.948181840341093,118.68168171898493
城东    泰禾首府,36.605707645661155,101.8095690383313
大营坡    中建华府(EF区) 距3号线-大营坡27m,26.667281748641294,106.18427643601177
钱江世纪城    桂冠东方城二区 距6号线-丰北站1141m,26.60990794597814,106.63966199380076
体育南大街    塔冢新村E区 距3号线-塔冢894m,38.01006222877497,114.53190885733406
石林城区    世纪阳光(一期),40.37760206345945,116.84574424755294
大学城    中渝春华秋实(二期),29.57621247382465,106.49834344559534
胥江    东大街77号小区 距5号线-南门站554m,31.168991123257296,121.50199264151856
九堡沿江    天澜美境公寓 距9号线-红普南路站570m,30.31717056007376,120.27893064560676
吉祥村    巴厘公馆 距3号线-太白南路1091m,30.999321550273677,121.19643366297736
桥南片区    当代万国城(三期),46.80766769805838,130.3713399506807
市府路    亨特国际 距2号线-省人民医院717m,31.200842867693858,121.11643398781966
三桥    新城玺樾台 距2号线-马王庙555m,32.88588016280268,114.3622981770452
钱江世纪城    桂冠东方城一区 距6号线-丰北站956m,26.60990794597814,106.63966199380076
中华南路    西湖巷26号院 距2号线-省人民医院662m,31.784876360921533,119.96128820032865
娄门    北园新村 距6号线-拙政园站1054m,31.243036703962076,121.52909272214357
谈固    金谈固家园地坛园 距1号线-朝晖桥335m,38.04964192075568,114.56847860515362
纸坊    富丽豪庭 距7号线-谭鑫培公园1454m,33.73069056927395,105.49379948742562
拉萨火车站    长兴都汇,29.636906471946528,91.0836718860251
官南大道    领秀云门苑 距1号线-日新路1926m,39.73627873265543,116.34599182962849
九莲    国都枫华府第 距2号线-学院路280m,30.724840608328158,121.35830858536703
花果园    花果园B南区 距3号线-松花路291m,26.570062524642587,106.67867953429156
拉萨火车站    青藏家苑,29.62936247542549,91.076709030189
新亚洲体育城    俊云峰文书院,24.95271919600373,102.77649061551435
盐步    佰德广场,23.0903545389173,113.19209452896406
富春    万科大家九都会(商住楼) 距6号线-公望街站982m,40.07558875358126,116.31772134675452
新立镇    丰年北里 距津滨轻轨(9号线)-新立488m,32.47648603440664,115.18681965718066
世纪城    金阳世纪城龙福苑 距2号线-金阳医院1740m,27.702144511749296,103.25454895521494
唐家墩    新华西美林公馆 距3号线-范湖419m,39.65916525036152,106.8233515591705
杨舍    中联皇冠,31.87153236664166,120.5208275211308
大马村    大马庄园 距3号线-位同1030m,36.20355938363084,115.08489683605194
大唐西市    御溪书院(商业) 距6号线-大唐西市791m,31.15317696641399,121.39894613002743
乐园街    五院小区 距3号线-旭升街1053m,39.899725918024174,116.35924641725876
新区    广州融创文旅城(商住楼),23.438597624278948,113.23506937471667
拉萨火车站    泰玺华庭,29.63222507342514,91.08639536866934
布达拉宫广场    当巴社区,41.16511618909607,121.34572422347776
狮山    华珑恒湖轩,23.10643487000595,113.06638565593927
柯木塱    柯木塱元墩西街小区 距6号线-柯木塱809m,23.200689879269717,113.40427491916464
转塘    云浦佳苑(四区) 距6号线-双浦1511m,30.12360023532183,120.09529454172953
群力    中海寰宇天下 距3号线-群力第五大道1093m,30.304217084576504,105.84792149065008
城关    城关,36.0631814753695,103.83147490052859
钱江湾    臻到豪庭 距6号线-西浦路站672m,30.184343463781612,120.13926578796799
津南八里台    碧桂园蓝岸庭院,38.946838732679794,117.34188314173298
太阳宫    太阳公元(北区) 距13号线-芍药居934m,39.98745877099339,116.44850825103819
龙头寺    华夏佳和苑 距环线-民安大道235m,29.622574572612788,106.55580427616651
三峡广场    奇峰清华源 距环线-沙坪坝624m,24.87466064402624,121.41788241051769
西红门    宏旭东路2号办公楼,40.003869932333416,116.35699795856728
魁奇    万通国际 距广佛线-魁奇路128m,23.15323070681274,113.2558242743651
布达拉宫广场    嘎玛贡桑住宅区,29.657253391022504,91.15611878809207
西永    龙湖拉特芳斯(一街区商住... 距1号线-微电园335m,28.456018340653763,110.40769895589824
会展城    中天会展城B区B7组团 距1号线-国际生态会议中心1047m,30.243064762160113,104.85069448808281
赤岗    聚德花苑 距11号线-大塘1412m,23.091171512847595,113.33547738323074
桐庐城区    上杭大厦,25.055570401525458,116.42644288775742
霞美镇    长福村自建房,24.00528858017511,117.69426789596537
城站    江明月朗园 距1号线-婺江路342m,,
胡家园街    远洋城滨雅花园,29.536467985643622,106.47631304195372
布达拉宫广场    哈达滨河花园(西区),45.13145986067662,124.86526460812723
学府大道    中梁百悦汇 距3号线-六公里680m,30.544155865855814,104.88464693296848
呼兰城区    汇宏时代广场(公寓住宅) 距2号线-江北大学城1786m,23.257509658799133,113.30830256359626
龙洲湾    巴南万达广场(B区) 距3号线-学堂湾307m,29.404311819603166,106.54908342383473
石狮泰禾广场    红日路自建房,24.74396873703134,118.6520084422364
金融高新区    保利环球汇 距广佛线-金融高新区939m,39.68181097563757,118.1863173601081
彭埠    观翠揽月轩 距9号线-五堡站1274m,23.128179980619304,113.27435002889125
船舶    星源国际 距1号线-工程大学646m,39.91550107522631,116.41949190509929
国贸中心    西交集团关上小区 距4号线-和甸营站1126m,31.208312549350804,121.41083978481008
拉萨火车站    那曲幸福家园小区,29.658905291804317,91.1758860008326
龙首村    永新苑红东花园 距2号线-龙首原1186m,34.29738352610795,108.94854638551605
学府大道    保利观塘香榭 距3号线-六公里1486m,39.9229081214029,116.66418799042296
承德广场    景阳街一工具小区 距3号线-北马路383m,40.95785601233803,117.96939750996681
铁机路    团结名居枫园 距8号线-汪家墩298m,30.59043410798751,114.35128198708469
上庄    宏扬香木林,38.04327036241438,114.38906640891855
东海湾    东海湾太古广场二期,34.54791862736427,118.75956509248417
小海地    梅悦澜苑30号楼 距6号线-梅林路1276m,27.499079955567296,101.08818146433231
丰禾路    百欣花园 距8号线-白家口站126m,29.135363440717295,110.4975556475567
万达广场    晋文坊,39.912079085025304,116.23189795697564
柯木塱    柯木塱背坪社下街自建房 距6号线-柯木塱226m,23.200689879269717,113.40427491916464
彩虹城    太阳国际公寓(公寓住宅) 距6号线-伟业路站1133m,39.84503008709615,116.42290402874839
北关    新光大中心 距6号线-通州北关125m,36.11313160776512,114.36238189911874
拉萨火车站    珠穆朗玛吉祥苑,29.669170660683225,91.09947811045123
城厢    众安朝阳银座 距2号线-朝阳550m,25.424343792481636,119.00153633130627
七星岗    金山大厦(渝中) 距10号线-七星岗163m,25.22192577305883,121.61738317819064
紫金港    西溪宸悦 距5号线-蒋村452m,30.28108347148038,120.15605664506884
北滨路    珠江国际(B区) 距9号线-刘家台293m,39.93858308977417,116.69706696022422
成华周边    瑞景新城C区,30.665589283983017,104.10859155035178
浮桥    宝嘉誉峰(商住楼),24.921988513355064,118.55110438941988
布达拉宫广场    八一农场小区,19.439988375700207,109.30097524932157
高新四路    高新丹枫国际 距5号线-丰庆公园878m,39.996832662036645,116.48833902752006
钱江世纪城    顺发和美家 距2号线-飞虹路399m,30.237506005826564,120.26058248607382
照母山    协信星都会,29.629132980557177,106.51013127998503
布达拉宫广场    羊卓苑,41.16511618909607,121.34572422347776
津京公路街    金苑公寓 距1号线-瑞景新苑1598m,31.24867084134684,121.5850080181038
石滩    敏捷绿湖国际城,23.20727115771896,113.79513393456548
未来方舟    中天未来方舟D9组团思恭...,30.243064762160113,104.85069448808281
东坝    金驹家园一区(金驹家园D... 距3号线-东坝1904m,31.18790117030116,106.09855887878619
浮桥    茂诚皇江御景,35.179917628287704,118.34205478976196
平洲    万科尚都荟(商住楼) 距3号线-镇安1519m,40.07558875358126,116.31772134675452
石碁    石碁村路自建房 距3号线东延段-石碁南1394m,22.959210717542422,113.44452439583141
平顶山文化公园    富州新城D街区 距1号线-高庙村936m,33.631781157027774,113.37693249026223
南山中心区    城市印象 距9号线-南山书城723m,22.525380185690853,113.93626419793608
花果园    花果园J区 距3号线-太慈桥757m,30.706157357809133,104.07821849360116
新区    石岗村西区正能量苑,24.14878739174072,120.67644156464537
拉萨火车站    顿珠金融城融晟园,29.640715532999764,91.10931356764618
红旗河沟    弗瑞登 距3号线-红旗河沟408m,35.30430055414413,114.00839015019321
大关    大关南三苑 距3号线-香积寺1231m,27.754021401911025,103.89751489665241
西三教    恒大华府 距3号线-西三教1233m,24.12882496371557,120.4422097178022
金沙湖    上沙永裕大厦 距1号线-金沙湖526m,33.741317470846525,119.8103007407199
临安城区    滨湖天地云珀府 距16号线-农林大学1317m,31.534639699974193,120.29154752615551
茨坝    山水润城雅园,25.15062122421026,102.74593995660602
健翔桥    华盛乐章 距15号线-北沙滩1661m,39.84839562497989,116.42933113518065
狮山    雅居乐新地,23.112926020737397,112.99784620317831
南庄    华夏中央广场(商住楼),22.966471048397814,113.02757598334341
石坪桥    九龙大厦(锦龙路) 距2号线-动物园546m,22.71267668242142,113.83193679265271
仙林大学城    紫金上林苑 距2号线-金马路1046m,30.259396066219203,120.32316204112091
大良新城区    五矿万境水岸 距3号线-顺德欢乐海岸957m,40.85119157874655,111.76267838713736
大学城    协信城天骄名城(三四期),29.52789370878533,106.57784842388244
崇文门    国瑞城(西区) 距5号线-崇文门348m,39.90733739263898,116.42906766217456
星河湾    星河湾三期(荟心园),39.93410154743498,116.52942204188285
建华    上东城(南北区) 距1号线-北宋862m,40.08660524470657,116.31322739377977
长安医院    海璟台北湾(北区) 距8号线-霸城门站626m,31.047318863258397,121.76974903775832
鱼洞    蔚蓝海天 距3号线-金竹1771m,27.461011717589816,105.15850990840914
世博片区    解甲园 距5号线-世博园1703m,31.17615947986959,121.50254303330453
中源大道    富力城(三期),39.90166304624212,116.46296701720459
镜湖大道    自由人花园,23.347767225221368,113.23104595416935
新塘    锦绣新天地,24.35772970625323,109.42327505293711
里水    三星金融大厦,23.169436064502253,113.15943672199016
布达拉宫广场    园丁苑(二区),41.16511618909607,121.34572422347776
会展城    中天会展城B区B8组团 距1号线-国际生态会议中心1186m,30.243064762160113,104.85069448808281
田村    天合家园 距6号线-田村317m,36.014591603303444,114.3555670840284
城关    城关,36.0631814753695,103.83147490052859
拉萨火车站    海亮颇章,29.62936247542549,91.076709030189
城关    城关区,36.0631814753695,103.83147490052859
同心路    云城尚品A1组团,26.681667977548603,106.65666601879352
祖庙    铂顿城 距广佛线-祖庙70m,23.03206982296142,113.12023035768124
弹子石    锦江华府 距环线-弹子石1780m,29.58818614828762,106.59668867516754
蔡家    旭辉紫都 距6号线-蔡家835m,43.41622085550668,124.67572056081994
安溪宝龙广场    尚学领地(3-6期),25.04571230911078,118.19628557072852
柏林四季    城市主场小区,23.24153334819895,104.73931546265531
拉萨火车站    海亮世纪新城,29.62306098553846,91.08870796637346
南安市区    中骏愉景湾,24.971408298015547,118.40516846106415
沙河    高教大楼 距昌平线-沙河高教园1460m,36.91064259678563,114.55348687432814
狮山    恒大城,22.275414745787874,113.57751996382852
区政府    时代滨江丹枫四季 距6号线-江陵路站579m,40.15606203259834,116.66728400036311
大寨路    融侨城(东区一期) 距8号线-金光门站728m,29.53512570833954,106.55482718926363
鸿恩寺    财信北岸铂寓 距9号线-李家坪1166m,29.57578276589539,106.51401824792542
南安市区    西溪半岛,24.969633174918254,118.43507709385622
龙洲湾    西部人才产业园,29.355390553150514,106.53522634270348
金沙洲    恒大御景湾,39.86084929296107,116.55951294087278
钱江世纪城    江南风尚铭楼 距2号线-振宁路1432m,30.237506005826564,120.26058248607382
民生路    文和家园 距2号线-省政府1382m,28.388788716082654,121.35552992958782
石坪桥    鲁能九龙花园东郡(商住楼... 距2号线-大堰村1458m,29.507780138577978,106.49409392155125
简良    富贵城,22.617768903881796,113.31255505204854
布达拉宫广场    东城金座,39.93482727239599,116.4224009776628
九龙湖    颐和南园 距3号线-九龙湖961m,30.039458936506797,121.55853675133578
沙河    高教大楼 距昌平线-沙河高教园1460m,36.91064259678563,114.55348687432814
龙洲湾    旭辉城(一期) 距3号线-学堂湾1001m,29.407708669040417,106.54922661373298
绿岛湖    龙光水悦龙湾(商住楼),23.181238419936697,106.76622991638446
古田    永利新城南苑 距1号线-古田三路955m,23.770515013561774,113.886517026946
临安城区    锦江公寓(临安) 距16号线-临安广场762m,30.226902030640804,119.70818658051755
城关    城关,36.0631814753695,103.83147490052859
西永    西著七里二组团(商住楼) 距1号线-微电园1201m,29.619333983165518,106.36252899490884
新塘    水电广场 距13号线-白江1315m,23.126504523817694,113.60915594828518
容桂    振华社区,22.76988921773085,113.27891144460831
前进/江汉    长健里小区 距1号线-循礼门443m,30.591794492829337,114.29045888880124
群力    里普利广场,45.73953955880347,126.52904114877119
布达拉宫广场    阳吉华苑,39.092053856541206,117.13309124967651
海洋公园    滨江和城 距18号线-海昌路1469m,30.92094720588047,121.91078219434989
万里城    普陀金鼎公寓(公寓住宅) 距11号线-上海西站739m,31.268790485084782,121.40930502984628
桥南片区    百信御江帝景二期,46.80766769805838,130.3713399506807
宏伟路    松电小区(南区) 距1号线-桦树街594m,31.55380802739345,120.11765103027855
第三大街    翠亨村 距津滨轻轨(9号线)-市民广场1928m,22.450893179033475,113.54304192040036
布达拉宫广场    盛域滨江,41.16511618909607,121.34572422347776
大关    大关东六苑 距3号线-大关802m,27.754021401911025,103.89751489665241
布达拉宫广场    宏盛小区,41.16511618909607,121.34572422347776
陈村    卓越碧桂园天悦湾,22.973222484432345,113.20771749906623
高新区    鑫金花园(昌源北路) 距4号线-海屯路站1907m,30.586452710935603,104.03603182108881
大坪    万科锦程 距1号线-石油路554m,31.13195709230715,103.82740225283801
城市广场    万科金域蓝湾一期,39.72878228840534,116.18500946359353
和兴路    康宁家园 距1号线-学府路980m,39.739988501996265,116.33567577898245
二郎    文景苑 距环线-陈家坪481m,29.527883259471007,106.4939870231956
吴井路    合金公寓 距2号线-环城南路762m,39.9339155160597,116.27212533534016
南市    保利金香槟(商住楼) 距4号线-东南角152m,22.237774331759756,114.22163845258403
花果园    花果园B北区 距3号线-松花路451m,26.570062524642587,106.67867953429156
大差市    东方紫韵 距6号线-大差市193m,19.10110473128863,108.65856652679174
拉萨火车站    中新房铭著,29.630747988456577,91.0910440098514
会展城    中天会展城SOHO公寓 距1号线-国际生态会议中心935m,30.243064762160113,104.85069448808281
周浦    阳光城丽景湾,31.120037799759316,121.58171475269725
市桥北    新水坑村,22.981628589884703,113.39855361137347
拉萨火车站    祥和御府,29.62936247542549,91.076709030189
礼嘉    龙湖星图 距6号线-金山寺64m,29.678746909438768,106.50918168123076
王家湾    龙阳雅苑(北区) 距3号线-龙阳村303m,40.27160209628052,114.85688183489582
桃源居    鹤洲东区 距12号线-钟屋南1040m,22.632317661899343,113.86988768518133
布达拉宫广场    城关花园(B区),29.657681963552776,91.12535963964342
科技六路    盛景园 距8号线-延平门站1238m,31.165530879283047,121.15781703622277
土门    富力开远城B区 距8号线-金光门站998m,34.2647810426256,108.88601390167767
松浦    华美星荟,39.92368840056063,116.1980968765684
钱江世纪城    亚奥城(南区商住楼) 距6号线-丰北站549m,26.60990794597814,106.63966199380076
棕树营    北大资源博泰城 距3号线-市体育馆397m,25.04474382216746,102.69323637952151
渝中区观音岩    临华路13-18号小区 距10号线-七星岗232m,29.56465518439715,106.5680829446867
布达拉宫广场    雪域明珠园,32.454240477118056,119.91665193852116
岔路口    左邻右里泊客公寓 距3号线-宏运大道965m,31.18038823039413,108.2897581397662
高新区    西城时代韶华苑,39.91812360584148,116.37251358116619
佳农市场    润德天悦城云贤园 距2号线-南位887m,39.770160133441394,116.33915599418921
钱江世纪城    O纪元 距2号线-盈丰路219m,30.237506005826564,120.26058248607382
其它    南安恒大御景,24.980061621534567,118.38228278074675
布达拉宫广场    天海吉祥花园,38.90845878863059,112.44411220723042
大智路    银泰大智嘉园 距1号线-大智路313m,39.92212831746317,116.41794511284166
开发区    明怡花苑 距7号线-明星路1034m,35.804963883185884,114.99633702802856
城市广场    星空广场 距广佛线-南桂路1986m,39.72878228840534,116.18500946359353
立汇美罗湾    立汇美罗湾一期,25.012873228238313,102.82274885773539
季华六路    兆阳O立方 距3号线-季华六路612m,31.48337832042415,120.29901747545428
大江东    融智创城 距7号线-启成路502m,31.543759320897458,120.2859025743308
宝安中心区    富通好旺角(一期) 距5号线-翻身539m,22.560032908924555,113.89042744066019
钱江世纪城    阳光城檀悦 距7号线-兴议1556m,26.60990794597814,106.63966199380076
布达拉宫广场    天路分公司职工安居小区,22.538077595033915,113.99617111441012
平安公园    水木大兴 距2号线-裕华路1293m,38.043323131609824,114.50910132958849
双山    中交万都汇 距2号线-平安1507m,41.14430575459048,123.02599857141405
北滨路    珠江国际(B区) 距9号线-刘家台293m,39.93858308977417,116.69706696022422
石狮服装城    钞坑泰亨新城(北区),24.727730005983275,118.63425738638179
进港大道    阳光城丽景湾澜悦,40.162528800823154,117.11393838806772
西三庄    西三庄(北区) 距3号线-西三庄839m,38.0856818525086,114.4585245734435
黄岐    时代水岸三期,26.32764059959032,119.88870770351718
平江新城    星健中心 距6号线-平河路站193m,28.696066507483874,113.60311906576847
大良新城区    五矿万境水岸 距3号线-顺德欢乐海岸957m,40.85119157874655,111.76267838713736
开发区    国玺悦龙府 距2号线-建设一路393m,35.804963883185884,114.99633702802856
席王    辰宇世纪城 距1号线-半坡874m,34.29424628578589,109.06989443448418
城厢    融望之城东区(公寓住宅),25.424343792481636,119.00153633130627
石井坡    信达滨江蓝庭 距1号线-石井坡567m,39.90877570866832,116.36951602550994
翠云    联发瞰青(二期) 距3号线-翠云1060m,47.32755735875889,126.51237506630557
布达拉宫广场    哈达滨河花园(西区),45.13145986067662,124.86526460812723
开发区    绿都百瑞广场 距2号线-建设三路177m,35.804963883185884,114.99633702802856
宁园街    舒园里 距6号线-北宁公园415m,39.87216680642649,116.58227609232618
江北嘴    紫御江山紫峰 距9号线-江北城888m,29.589043492653097,106.57836728514482
甪直    长虹花园二期,31.27367600852298,120.83865456819122
滨江东    滨江明珠 距8号线-鹭江1231m,30.214332950144062,120.21847118139375
经济开发区    东城国际嘉仕苑 距4号线-朱家村站601m,27.44156733215448,112.16743444425771
上海大学    大华朗香公园里(东区) 距7号线-上大路819m,31.326347801347108,121.3957672064887
裕西    孔寨新区,31.649738468474663,114.8855247552342
宁园街    赛园里 距6号线-北宁公园321m,30.553815306343626,104.07243619086398
世纪公园    丁科苑(东王) 距3号线-东王313m,40.34971033275262,116.56478841964123
花果园    花果园Q区 距3号线-五里冲105m,26.570062524642587,106.67867953429156
高新区    阳光城启航中心 距1号线-白鹭湖1811m,39.68181097563757,118.1863173601081
关山    保利时代(北区),30.497010721977198,114.41438130169988
城厢    湖头陈风彩苑 距1号线-湘湖1004m,22.562792197615124,113.91496276921556
太白南路    大华阳光曼哈顿 距6号线-木塔寺1358m,31.2833213023604,121.42904592224191
龙兴    和合家园D组团 距4号线-高石塔1234m,29.236250795168118,116.30169897451113
大石坝    绿地新都会 距5号线-大石坝1120m,29.57628040080443,106.50026303463899
布达拉宫广场    东城金座,39.93482727239599,116.4224009776628
王家湾    中大十里新城 距4号线-王家湾734m,40.27160209628052,114.85688183489582
洛溪    洛溪新城雅澜苑 距2号线-洛溪187m,23.049942554798264,113.30751915136128
大沙地    黄埔创新中心 距7号线-姬堂1042m,23.129280045877834,113.46262300608771
桥南片区    百捷中央公园御府,46.80766769805838,130.3713399506807
百家湖    胜利家园 距1号线-胜太路589m,30.65131092780619,104.2345444031946
公明    合水口村 距6号线-合水口站204m,22.790412660198733,113.88796033440839
拉萨火车站    海亮世纪新城,29.62306098553846,91.08870796637346
科技园区    刘孟家园 距9号线-丰台南路873m,39.83346627962086,116.29569669226088
哈西    哈西民主家园 距3号线-城乡路1588m,45.72644908299576,126.57669814251739
伦教    唯美嘉园,22.8698509730718,113.22045232712424
浮桥    世茂大唐云璟,39.913313157558754,116.47795380734976
白龙路片区    昆明理工大学白龙苑 距5号线-白龙寺613m,34.015759132808405,108.75259918428566
开发区    中国铁建青秀城 距7号线-明星路1514m,35.804963883185884,114.99633702802856
旧区    糖厂边一巷-四巷自建房 距9号线-莲塘1453m,22.698557895029104,113.8370016187774
西大街    龙赵村 距2号线-龙首原1299m,31.332681019934736,121.18231921731292
哈西    红星城 距3号线-城乡路1539m,45.71526089145673,126.5982048340541
冉家坝    橄榄郡(渝北) 距5号线-冉家坝348m,30.428941912678443,103.82608030644953
光明    科裕新村 距6号线-长圳站1491m,39.92122994788037,116.54594188021134
雁环中路    金地未来域,34.17986570528673,108.89846477536818
河西    九龙里,29.006431902924817,101.5134156671805
城南客运站    南飞鸿广场 距2号线-三爻836m,34.19130402629117,108.94385696126233
中山路    富力东堤湾 距5号线-杨箕189m,39.90266393531041,116.4670233157349
乐松    松研住宅小区,30.242041098117458,120.26247000561138
城关    城关,36.0631814753695,103.83147490052859
巫家坝    万科翡翠二期(商住楼),30.597274618375135,103.5673535873655
双阳街道    万达文化广场,25.00182465930644,118.6302324387151
双福新区    康豪精屋居,22.748603334883132,114.38699752132096
桥北    明发滨江新城(三期) 距3号线-柳洲东路626m,31.022963080371614,121.80671134508573
知识城    合景天峻 距14号线(知识城线)-旺村604m,23.328462988042503,113.53827101983842
中央大街    和谐小区 距3号线-公路大桥100m,40.10484484661821,116.41095081631042
平洲    富丰新城,23.12855702818357,113.42022702840555
布达拉宫广场    东城一号,39.93482727239599,116.4224009776628
南湖新区    旭辉观云(商住楼) 距2号线-枫林路1186m,40.12917936026686,116.61863357055371
拉萨火车站    皮革厂基地,29.62936247542549,91.076709030189
大源    临江苑二期,41.817678643991684,126.92458151350212
黄龙    庆丰新村 距3号线-黄龙体育中心351m,35.587521912353715,109.83701652812636
拉萨火车站    双创广场,29.63316609542391,91.08965100749754
花果园    花果园一期 距3号线-花果园299m,30.706157357809133,104.07821849360116
加州    金凤大厦 距3号线-红旗河沟385m,38.49294304904517,106.25467701031518
坂田    第五园八期 距10号线-南坑站1051m,22.622292789723318,114.07544109597586
沙头角    壹海城V公馆 距8号线-海山226m,22.560843596572333,114.24493796090061
开发区    中栋国际(商住楼) 距5号线-滨康路1804m,35.804963883185884,114.99633702802856
奥南    莲花新城南苑 距S3号线-油坊桥918m,41.446771528957576,120.06498265958413
丰庆公园    西桃园小区 距5号线-丰庆公园615m,43.6648786567875,124.95507255407415
皇岗    御庭园 距7号线-福民464m,22.53310734817462,114.06830684344853
孙村    盛邦花园二区 距3号线-孙村428m,38.84639067306893,115.60060801068336
城关    城关,36.0631814753695,103.83147490052859
高新区    昆明恒大名都(东区) 距4号线-海屯路站321m,25.08309838568077,102.66660862794242
永春城区    永春碧桂园(二期),25.34318735699048,118.29849836484209
世博    东盛公寓 距7号线-杨高南路1369m,31.17615947986959,121.50254303330453
新街口    大杨村31号商务楼 距3号线-常府街476m,32.058733088669975,118.79736408156359
龙头寺    保利香槟花园(B区) 距3号线-狮子坪161m,29.622574572612788,106.55580427616651
庙山    泰驰伊顿阳光,34.75288928251739,118.37469777470575
黄土坡    广基馨悦尚居 距4号线-小屯站1041m,26.604567547707493,104.83703187837071
星桥    汤家锦绣公寓三区,30.911583029081775,121.71762081816706
群力    群力远大商务公寓 距3号线-体育公园353m,45.74362462792901,126.56199036606351
万达广场    世茂御龙湾曼哈顿,39.912079085025304,116.23189795697564
经济技术开发区    首创漫香郡 距2号线-北苑400m,38.07733175517638,114.4482670923167
油榨街    东宝花园 距2号线-油榨街728m,22.75420909364807,113.80675549260535
世纪城    红星天铂北区,26.60990794597814,106.63966199380076
南坪    贝蒙松藻中心 距10号线-万寿路458m,28.990898870063365,106.62500748686857
西湖    三远花园,28.680881660484186,115.9022091296038
丰禾路    太奥国际城(商住楼) 距8号线-白家口站547m,34.28748901502539,108.90231356532567
富春    澜沁臻品府北区 距6号线-公望街站1003m,30.078957195604715,119.9419420233741
福保片区    滇池国际会展中心山海湾 距5号线-滇池国际会展中心1516m,22.525074805737628,114.05502898970994
江浦街道    长江时代雍澜悦府 距10号线-南京工业大学1141m,32.07913085467776,118.66162113595081
云鹿路    碧桂园凤凰岛,31.24602435107175,120.87528405332718
临平北    美致生活广场,30.473678454892102,120.2574396744166
市政府    花香满径 距1号线支线-市级行政中心清风1763m,40.15606203259834,116.66728400036311
世茂大道    北岸明珠 距2号线-世茂大道543m,39.95004205873495,116.35780203182928
新塘    品秀星图 距13号线-官湖712m,24.774145975991875,118.61193458429675
开发区    滨江御虹府 距2号线-飞虹路496m,35.804963883185884,114.99633702802856
未来方舟    中天未来方舟D17组团,30.243064762160113,104.85069448808281
新世界    新世界翰临境 距2号线-枫林路796m,31.784876360921533,119.96128820032865
迈皋桥    金浦御龙湾FG区 距1号线-迈皋桥1233m,30.844243245120015,121.0136606510341
狮城国际广场    石狮金辉城,24.746400834029217,118.63045881170355
光谷东    双墩社区 距11号线-未来三路1258m,30.541888225692546,114.6110296303808
富民路    富民商业街 距津滨轻轨(9号线)-东兴路1898m,31.69355920285244,121.42696248227261
新添寨    北衙路2号小区 距3号线-新添530m,26.64260428083102,106.7772236487036
太白立交    凯旋城 距5号线-边家村981m,40.00387414654514,116.4261095421302
宅吉    贵信花园 距1号线-南垭路1348m,28.456018340653763,110.40769895589824
辛家庙    桐树湾 距3号线-辛家庙606m,34.311014885176945,109.00188839551241
南联    宝龙小区 距3号线-龙城广场794m,22.722011244819086,114.2692191588273
枣园    三民汉风苑西区 距1号线-皂河551m,34.29063277325171,108.86228875485365
乐从    新睿广场 距3号线-东平704m,22.96811075343713,113.13107263569142
常营    中弘北京像素北区 距6号线-草房418m,34.11956053390748,114.62495076069948
钱江世纪城    星翠澜庭 距6号线-丰北站898m,26.60990794597814,106.63966199380076
千灯湖    万科金色领域(商住楼) 距广佛线-礌岗479m,31.389377403569366,121.22579738365695
上海植物园    鑫龙苑 距3号线-石龙路619m,31.16414926431826,121.45497640909294
拉萨火车站    人和汽贸城商务楼,29.651785123884885,91.02477349714678
乐从    佛山国际金融中心 距3号线-东平368m,22.971022758774158,113.13571085652956
拉萨火车站    双创广场,29.63316609542391,91.08965100749754
安埠    安埠小区(南区) 距3号线-油坊街724m,45.734800388450765,126.70096640303812
五十四中学    周通家园 距1号线-留村1288m,36.71867539503992,102.14216782119782
会展城    远大生态风景二期栖景湾,46.47829259465719,126.07073888266856
转塘    中梁云都汇(商住楼) 距6号线-科海路818m,30.163897088237924,120.08490204528458
南滨路    南滨国际 距10号线-后堡94m,29.984975934743442,106.27980502865836
布达拉宫广场    阳吉华苑,39.092053856541206,117.13309124967651
潮鸣    红枫苑(拱墅) 距5号线-建国北路216m,23.19932234721448,113.37366192502242
阅山湖    中铁阅山湖A组团 距1号线-阅山湖公园929m,35.248993629135384,100.14564780322087
拉萨火车站    长兴国际,29.628871776452883,91.08775387609164
大学城    德意名居(一期) 距7号线-西丽湖639m,31.08183732823536,121.51814507289347
丰庄    嘉美坊 距14号线-真新新村197m,35.46699271137545,114.36623284500946
里水    甘蕉商业楼,23.17036468296521,113.15168147086398
哈西    红星城 距3号线-城乡路1539m,45.71526089145673,126.5982048340541
水头镇    水头村自建房,24.71210091093897,118.43830910724951
三桥    恒大御龙天峰 距2号线-马王庙1701m,32.88588016280268,114.3622981770452
世纪公园    华兴小区 距3号线-东王521m,30.623608175562886,104.02625467089804
大良南区    汇成华庭,22.954085880136002,120.19337968747016
金融高新区    灯湖胜悦苑 距广佛线-金融高新区721m,23.062692561910122,113.18364937920646
吴中太湖新城    新城珺未来花苑(一二期) 距4号线-天鹅荡路1929m,31.19300035825689,120.61898302861175
龙洞    龙洞直街自建房 距6号线-植物园799m,30.87897809668878,104.15276814922981
中央公园    复地公园和光C86区(商... 距9号线-兰桂大道700m,40.08196959964644,116.25386772500262
拉萨火车站    顺通冈仁国际,29.628349680141007,91.09024317048952
建国公园    恒兴花园 距1号线-和兴路1488m,45.75459505125733,126.6054746408853
钱江世纪城    桂冠东方城一区 距6号线-丰北站956m,26.60990794597814,106.63966199380076
滨江俊园    葡萄街区天宇花园 距2号线-白云路1141m,25.068376409822328,102.72132378772326
杨家坪    东原九城时光 距18号线-杨家坪1559m,29.518133024077525,106.53327127059222
拉萨火车站    加罗幸福小区,29.65229273772472,90.99659760585233
会展城    美的林城时代南区美桐苑 距1号线-阳关662m,26.645585423571852,106.65945453875666
钱江世纪城    江南明城金座 距2号线-振宁路10m,30.237506005826564,120.26058248607382
龙洞    龙吟居 距6号线-植物园860m,23.19090276148554,113.36738106272927
南门    东大街社区 距5号线-南门站1017m,28.174878634729424,113.03531596327593
富春    万达同心湾(北区) 距6号线-高桥站723m,35.50347645494989,115.49346477691397
观音桥    雨轩华新小区 距3号线-华新街330m,29.864089866186934,107.07272232407983
城东    润柏大都会,36.605707645661155,101.8095690383313
大关    三塘人家 距3号线-大关1217m,27.754021401911025,103.89751489665241
太平桥    黎华小区 距1号线-太平桥535m,30.996364975277896,120.73132385806188
东海湾    东海湾太古广场二期,34.54791862736427,118.75956509248417
九堡沿江    郡原相江公寓 距9号线-九睦路站1794m,30.31717056007376,120.27893064560676
杨公桥    尚赏居 距9号线-天梨路1205m,29.558056567846027,106.44484980164658
东冠    晓月和风,30.172748257921874,120.17083871138828
松江大学城    中骏璟荟,31.055849491578385,121.2029109846876
布达拉宫广场    金盛花园,41.16511618909607,121.34572422347776
布达拉宫广场    兰泽公寓,41.16511618909607,121.34572422347776
北辰财富中心    江东丽景园南苑 距2号线-北辰986m,39.246587893790625,117.21464014251671
学府街    风湖里 距6号线-鞍山西道1284m,39.11950938135594,117.16555511250161
西部生态城    平绣雅苑,31.347512753105132,120.41100221660027
西兴    滨江御滨府(公寓住宅) 距1号线-西兴1379m,30.199667922123698,120.23218237771475
勾庄    融创瑷颐湾 距10号线-祥园路447m,30.354766665958575,120.09083508368634
会展城    中天金融城A9组团四达轩 距1号线-阳关1482m,30.243064762160113,104.85069448808281
哈西    爱达晶品 距3号线-城乡路674m,45.71526089145673,126.5982048340541
布达拉宫广场    智慧城,41.16511618909607,121.34572422347776
中新镇    恒大山水城,31.010348630626336,105.17566216564205
船舶    中发郦苑 距1号线-工程大学1403m,40.03543461984872,116.28304208288073
天拖南    华宁南里 距6号线-一中心医院1045m,24.19858102716324,102.9354918585251
大商汇    盘龙雅苑五号苑 距5号线-金家河1813m,24.987809580206612,102.71448696415018
花果园    花果园M区 距3号线-花果园894m,30.706157357809133,104.07821849360116
长江大道    天山银河广场 距1号线-火炬广场813m,38.04318246311725,114.63892120799065
泛亚科技新区    上悦天地(商住楼) 距4号线-大河梗站757m,31.35348673984067,121.59673629484209
观音桥    同创国际 距6号线-红土地797m,30.53507596368031,103.98013583869705
望江    江城路小区(316-32... 距5号线-候潮门233m,30.1339222330446,116.71325900687212
临平    丁山郡府,30.410925456497925,120.2925415012023
东海湾    碧桂园天玺湾,31.781126790736078,120.69729909958266
布达拉宫广场    德吉花园,41.16511618909607,121.34572422347776
钱江世纪城    龙湖天璞 距2号线-盈丰路854m,30.237506005826564,120.26058248607382
世纪城    金阳世纪城龙耀苑西区,27.702144511749296,103.25454895521494
宝善    永康苑 距5号线-宝善桥189m,30.638438793104115,104.04725821453866
太华北路    颐和郡 距8号线-市第三医院站517m,23.16532797096623,113.32187497171148
李七庄    美域豪庭 距10号线-昌凌路站208m,39.0624521051023,117.19363156138542
会展中心    华鸿金色柏林,23.24153334819895,104.73931546265531
东升镇    香榭美邻三期 距3号线-航都大街1994m,47.76578517303851,128.94519308743895
七星岗    西信洲际花园 距10号线-七星岗657m,29.565453513955845,106.57144143949573
布达拉宫广场    归巢轻奢公寓,41.16511618909607,121.34572422347776
大浪    陶吓村 距6号线-元芬站1059m,22.660688961580146,114.00894995943808
布达拉宫广场    纳金城祥苑,29.663845373266273,91.19020642794574
钱江世纪城    IOC潮悦 距2号线-钱江世纪城711m,26.60990794597814,106.63966199380076
观音桥    耐德佳苑 距6号线-黄泥塝1145m,29.5881323628156,106.54130472693474
龙头寺    东湖雅苑 距3号线-唐家院子455m,28.691259179775223,115.9054660260597
碧海花园    碧水云天 距2号线-观山西路608m,40.479180572154995,116.84485977594782
布达拉宫广场    团结新村,36.04397792215314,103.87410695291278
布达拉宫广场    八一世邦国际花园,27.626863325206187,113.85311218911025
民治    简上村 距4号线-上塘870m,22.63778196740556,114.01721095656622
空港新城    中航中央城 距9号线-兴科大道1104m,39.93385120026119,116.41355212940621
照母山    融创凡尔赛领馆(4期),29.629132980557177,106.51013127998503
祖庙    弼唐南便村 距广佛线-同济路1349m,23.035877066848766,113.12484710901768
白云公园    云城尚品A3组团,23.188692433800064,113.2777499355843
曹路    超煜文创园 距9号线-民雷路625m,31.276791066655655,121.67982236807096
哈慈    香林名苑 距3号线-劳动公园694m,26.68188595250141,106.64100001985743
光明    星河天地(四期),22.766703001739383,113.94511565127573
珞瑜东路    新世界恒大华府 距2号线-佳园路1299m,39.97711773986592,116.53796528660493
小东门    小东门二航设计院宿舍 距7号线-小东门374m,31.22568025159793,121.50766041030322
拉萨火车站    海亮祥云华府,29.62134334155797,91.08744036746876
庞各庄    大兴河马科技小镇,39.63570610851967,116.329368955658
冉家坝    安泰佳苑 距5号线-大龙山901m,26.07839951481119,119.30481469171856
太和    丰裕花园,41.097675538013306,121.11530041609662
春申    银河新都(中区) 距15号线-曙建路642m,31.112875696600664,121.41179809712813
拉萨火车站    世邦湿地公园,29.66082275857576,90.99392532662213
泥岗    祥青苑 距9号线-泥岗450m,22.57345886373538,114.1034810736467
大营坡    中建华府(EF区) 距3号线-大营坡27m,26.667281748641294,106.18427643601177
城东    润柏大都会(商住楼),36.61197784706617,101.8161126549882
文教    融信杭州公馆 距10号线-翠柏路596m,30.297528751625254,120.13744105998556
鱼化寨    双旗寨小区,34.23100374131525,108.82851552191721
布达拉宫广场    热木其兴农住宅小区,41.16511618909607,121.34572422347776
银湖    富春硅谷创智中心 距6号线-银湖站975m,31.259802893044768,121.61688798234741
布达拉宫广场    加措社区,28.784026930087183,87.259505741444
工业大道北    洪德路永兴街小区 距8号线-同福西761m,22.54841341308053,113.10326702592806
玄武东路    金辉江山铭著 距8号线-米家崖站1006m,39.93050275265966,116.4141169839109
新亚洲体育城    星云园 距1号线-星耀路985m,24.95271919600373,102.77649061551435
双街镇    城际美景,39.283210645165354,117.12265114303955
杨家坪    蚂蚁公馆 距2号线-动物园1793m,29.51261085344824,106.52880238034265
布达拉宫广场    圣城牡丹苑,36.88497297982513,118.74949634534504
拉萨火车站    锦庭苑世纪城,29.671537311361973,90.97403199178802
大商汇    盘龙雅苑六号苑 距5号线-金家河1851m,24.987809580206612,102.71448696415018
新迎片区    市政小区D组团 距5号线-石闸848m,25.05523562481522,102.74212629756371
徐庄软件园    苏宁紫金嘉悦 距4号线-徐庄·苏宁总部1631m,39.65065488090592,116.13016404949568
坂田    长发新村 距10号线-坂田北站458m,22.63774377431993,114.07040824952733
杨家坪    世纪公寓 距18号线-杨家坪133m,29.51261085344824,106.52880238034265
马家堡    景蓝家园 距10号线-角门东851m,39.84597634333505,116.39547750390105
宝安中心区    富通好旺角(一期) 距5号线-翻身539m,22.560032908924555,113.89042744066019
振头    玉村馨苑,38.01707677919049,114.45218675857895
大雁塔    岳家寨小区 距5号线-理工大曲江校区805m,34.20484555698211,108.99874387707472
布达拉宫广场    琅赛十一区(西区),41.16511618909607,121.34572422347776
九堡科技园    龙湖天瑄城(中区公寓住宅...,23.37777578062844,116.7235246469334
布达拉宫广场    八一社区,27.626863325206187,113.85311218911025
布达拉宫广场    天海瑞祥花园,41.16511618909607,121.34572422347776
嘉定城区    嘉宝梦之湾(公寓住宅) 距11号线-嘉定西1027m,39.97147507359086,116.54218974792673
杏坛    万科金域学府,39.11855457783171,117.17274101759813
容桂    碧桂园凤凰湾凤怡苑,22.803627913665675,113.3456211388766
城关    城关,36.0631814753695,103.83147490052859
丰泽街    远太苑,24.904385819989958,118.61816855504229
区政府    时代滨江丹枫四季 距6号线-江陵路站579m,40.15606203259834,116.66728400036311
南滨路    南滨国际 距10号线-后堡94m,29.984975934743442,106.27980502865836
道里周边    民安小区(道里) 距1号线-西大桥1252m,33.01137317146153,112.57084953919404
布达拉宫广场    红花广场,32.01739466327173,118.81915526645517
江心洲    洲岛和园和乐苑,32.01583898804382,118.68986197474294
南湖新区    华颐春天 距2号线-云峰大道506m,26.679527184496713,106.62972996876353
紫金港    同人精华 距5号线-三坝173m,30.343201511192166,120.067829838898
石坪桥    鲁能九龙花园东郡(商住楼... 距2号线-大堰村1458m,29.507780138577978,106.49409392155125
布达拉宫广场    新华苑,41.16511618909607,121.34572422347776
崇贤北    富春运河赋,35.50347645494989,115.49346477691397
明德门    蓝山公馆(南区) 距2号线-电视塔411m,25.37593472464048,112.2034349358637
光明    田寮村(光明),22.73594950764489,113.91049486710206
拉萨火车站    世通阳光新城,29.647347374936206,91.02336684054917
松北新区    香树湾,40.034156294285,116.34179117340273
魁奇    黎冲上村 距广佛线-澜石467m,28.20972937779803,113.32765035749433
望京    东亚望京中心 距14号线-阜通148m,39.99769769608402,116.47941184702302
"临安城区    江桥路175,177,1... 距16号线-临安广场1814m",30.226902030640804,119.70818658051755
弹子石    泽京微V,30.861289477524796,108.01699485810546
拉萨火车站    世邦金色两岸,29.63596783969224,91.02556858735339
石佛营    四路居368号院 距3号线-石佛营1899m,22.827179684936446,113.04256052771986
徐泾    西郊家园(青浦) 距2号线-国家会展中心963m,30.963493360390036,121.16018901192187
南安市区    源昌丰盛家园,24.95396409516861,118.38498003287012
城厢    通惠中路165-176号... 距5号线-火车南站1320m,25.424343792481636,119.00153633130627
甘泉宜川    新沪馨苑 距7号线-新村路1613m,36.056397437854244,110.17541306458482
石桥    永富大厦 距3号线-汽轮广场890m,30.62914934974259,104.13631550415347
布达拉宫广场    世邦城市花园,41.16511618909607,121.34572422347776
大山洞    帝璟佳苑 距2号线-白云中路79m,26.690016012416088,106.63849204070496
浦江    新汇绿苑二村 距浦江线-汇臻路275m,29.443914017344806,120.03108185052704
金洲    南沙城(商住楼) 距4号线-金洲1060m,28.28287326472348,112.69466818349146
友谊路    井街小区 距3号线-兆麟公园173m,30.176747651339333,120.10370771181378
金星立交桥    金康园 距2号线-白云路676m,39.77065489164504,116.38674256078313
花东    合景天湖峰境,23.44304938342368,113.33272066328261
世博片区    俊发盛唐城泰和郡 距2号线-北辰1686m,31.17615947986959,121.50254303330453
乐从    金海Mcity 距广佛线-东平107m,22.968721176769144,113.13640578567184
市政府    滇池明珠广场 距1号线-驼峰街480m,40.15606203259834,116.66728400036311
蔡家    北城未来(A区) 距6号线-蔡家989m,27.902735459897524,102.27809014754705
文一路    物华小康居住区 距2号线-丰潭路1327m,31.26531139528378,121.50275135035228
城关    城关,36.0631814753695,103.83147490052859
红旗河沟    弗瑞登 距3号线-红旗河沟408m,35.30430055414413,114.00839015019321
火车北站    王旗营万福里小区 距5号线-火车北站700m,40.23723084047673,116.23778913434062
世纪半岛    红星国际广场檀宫,38.862203320901365,115.51834622259045
钱江世纪城    O纪元 距2号线-盈丰路219m,30.237506005826564,120.26058248607382
东坝    东坝家园A区 距3号线-东坝474m,31.302021969528514,119.06672080906935
杨村街    博盛园,39.39602357047054,117.06600282978317
拉萨火车站    天知珑怡(B区),29.630175200098,91.06636153885354
仙林湖    新城香悦澜山 距2号线-经天路1310m,23.167817694537064,114.33881358157883
后湖    石桥花园(一期东区) 距6号线-石桥691m,30.63580617647392,114.27778433703877
拉萨火车站    东嘎时代广场,29.648855680888047,91.01687119340866
金洲    南沙碧桂园(别墅),22.804482704197916,113.56209372263298
红旗    十里尹村雅苑,35.310135512691105,113.88141583415499
沙园    江南花园三期 距2号线-江南西828m,22.794436178237493,108.32246210678358
郭杜    挚信樱花园,34.166041593589824,108.88858080967243
拉萨火车站    金马国际,29.624990680057984,91.08967238716865
城东    融创宸东壹号,36.605707645661155,101.8095690383313
知识城    万科幸福悦,23.328462988042503,113.53827101983842
精英中学    御灏府,38.158517681583575,114.46403900147759
石路    新桥弄小区 距4号线-北寺塔840m,39.54509190127431,116.32859174173076
科学城    南曜玉树里 距21号线-科学城1656m,23.163399221181045,113.4431959816437
东门    东悦名轩 距3号线-晒布347m,22.557552755522977,114.12984445391429
布达拉宫广场    西藏阳光都市,41.16511618909607,121.34572422347776
福永    福永,22.677080459902637,113.82929891852355
狮山    恒大翡翠华庭,22.275414745787874,113.57751996382852
医大一院    龙江街小区(吉林街1-1... 距1号线-医大一院251m,41.665666621507036,123.4326419825515
欢乐谷    金地自在城(西区K2) 距4号线-园林路535m,39.86648052556189,116.5057717239078
西斜七路    崇立苑 距3号线-太白南路539m,30.6332578527326,104.00315743264566
世纪城    金阳世纪城龙贤苑北区 距2号线-金阳医院1930m,27.702144511749296,103.25454895521494
南洲    越秀天荟江湾 距2号线-南洲1138m,23.070851306887274,113.30854088404799
麓湖生态城    麓湖生态城云龙荟 距1号线-红石公园1374m,30.468660911928463,104.0725329383674
大商汇    良辰水逸(1期),24.987809580206612,102.71448696415018
区政府    杭州印 距6号线-江汉路站1183m,30.217367880947304,120.2118696240315
春晖路    东海阿特豪斯 距环线-华龙1780m,40.24229702058656,116.14098512749942
九堡客运站    九天泽一国际(商业) 距9号线-客运中心站938m,30.31717056007376,120.27893064560676
二环南路西段    莱安逸境 距8号线-金光门站676m,31.692975973201513,120.28101022286236
蟠桃宫    盛世花城 距2号线-宝山南路326m,39.90732314077421,116.44153057315889
纺织城    现代花城 距6号线-纺二路221m,34.276927901038256,109.06750745708307
布达拉宫广场    尼吉苑小区,41.16511618909607,121.34572422347776
会展城    中天会展城B区B8组团 距1号线-国际生态会议中心1186m,30.243064762160113,104.85069448808281
西南    三水帝景湾,23.167572329184328,112.88649315050374
百家湖    金王府小区 距1号线-河定桥562m,37.13144259503552,114.6930111471546
大沥    白沙村,23.115357731444842,113.11692980357755
布达拉宫广场    日喀则御澜湾,29.275657822511512,88.89370303482552
布达拉宫广场    东尊名城,41.16511618909607,121.34572422347776
三桥    三桥安置新村 距1号线-三桥405m,30.04807846690191,121.27695255871983
南码头    临沂大楼 距6号线-临沂新村373m,34.94166577960431,117.99091983201927
堆龙德庆    堆龙德庆,29.651625675009356,91.00996313420868
龙头寺    庆业九寨印象 距环线-渝鲁815m,29.622574572612788,106.55580427616651
丁桥    置鼎明珠1号(商住楼) 距3号线-丁桥882m,23.15768897694328,113.16450684811734
拉萨火车站    南城碧水湾,29.639335102644996,91.09102397763853
泛亚科技新区    上悦天地(商住楼) 距4号线-大河梗站757m,31.35348673984067,121.59673629484209
照母山    世茂茂悦府(一二期) 距5号线-重光1275m,29.629132980557177,106.51013127998503
大浪    上早村 距6号线-元芬站445m,22.660886481392687,114.01458494006977
大白杨    浩林方里 距8号线-红庙坡站1136m,35.28350352601678,114.84620134170437
联强    党家庄新区 距3号线-高柱1807m,30.6332578527326,104.00315743264566
东海湾    东海湾太古广场二期,34.54791862736427,118.75956509248417
拱宸桥    蚕花园永安坊 距5号线-拱宸桥东1306m,30.332346299100312,120.15430503915493
莲花村    莲花一村 距10号线-冬瓜岭站642m,40.389754070870055,116.09232122310738
大石坝    首创鸿恩国际生活区(三期... 距5号线-大石坝979m,29.57628040080443,106.50026303463899
大商汇    盘龙雅苑六号苑 距5号线-金家河1851m,24.987809580206612,102.71448696415018
布达拉宫广场    西藏阳光都市,41.16511618909607,121.34572422347776
瑞景街    奥林匹克花园枫叶苑 距1号线-瑞景新苑1318m,39.96581009448197,116.54858801875208
观音桥    成盛大厦 距9号线-观音桥490m,24.58507497730171,118.04129849571835
中华中路    交易东巷9号小区 距2号线-紫林庵238m,22.59596119927603,114.26649432872478
前滩    灵岩南路300号小区 距8号线-杨思564m,34.216825546183145,118.02765307144163
湖墅    大塘新村 距2号线-沈塘桥895m,,
航天城    皇子坡社区,40.085649091328975,116.27680802230257
桥南片区    百信御江帝景二期,46.80766769805838,130.3713399506807
横岗    中和盛世 距3号线-六约1586m,24.993062357356393,121.50846003961334
布达拉宫广场    琅赛花园十区,41.16511618909607,121.34572422347776
亚运村    九台2000家园 距15号线-安立路585m,40.00248406422588,116.42064110733821
布达拉宫广场    遇上锦格公寓,41.16511618909607,121.34572422347776
硚口周边    长丰城(H5区),30.615307666920263,114.21826423089755
下沙    中洲滨海商业中心 距9号线-下沙904m,29.095019851489198,113.04431419973587
上海植物园    华滨家园,31.146278672941555,121.45649634201581
狮岭    龙泉西路自建房,23.304504196044025,113.67461017077314
布达拉宫广场    泽巴姆家园公寓,41.16511618909607,121.34572422347776
台湖镇    东亚环球国际,39.844695414618634,116.64975311918313
七星岗    西信洲际花园 距10号线-七星岗657m,29.565453513955845,106.57144143949573
开发区    顺发美颂城 距7号线-新兴路1863m,35.804963883185884,114.99633702802856
南屏街片区    华夏大厦 距5号线-五一路582m,34.015759132808405,108.75259918428566
创意谷    汉华曲江中心 距5号线-理工大曲江校区293m,32.52708392818288,112.38769869995329
韦曲    兰乔国际城 距2号线-韦曲南1245m,34.1533522105372,108.94392846638091
庆丰    红星路4号小区 距8号线-亭岗770m,40.1283979986936,116.65921820501956
布达拉宫广场    康雅花园,41.16511618909607,121.34572422347776
布达拉宫广场    世邦书山郡,41.16511618909607,121.34572422347776
布达拉宫广场    天海吉祥花园,38.90845878863059,112.44411220723042
化龙桥    雍江御庭 距18号线-富华路260m,29.557830993272045,106.51093355663573
乔司    胜稼红星嘉园(四区) 距9号线-乔司南站1010m,30.32960851814635,120.28726386650062
拱宸桥    凤亭院 距5号线-拱宸桥东387m,30.63059386373038,104.07608798242313
石狮泰禾广场    香江路自建房,24.74396873703134,118.6520084422364
拉萨火车站    天知世界城,29.63353449644612,91.07316153190071
明德门    明德华园大厦 距8号线-电视塔站1342m,34.20975300996506,108.94497939399703
鸿恩寺    财信北岸铂寓 距9号线-李家坪1166m,29.57578276589539,106.51401824792542
电子城    北沈新世纪(南区) 距8号线-山门口站1269m,34.19825481141029,108.90300157751577
石铜路    天伦锦城,34.802894555084656,113.65214392392929
布达拉宫广场    东城一号,39.93482727239599,116.4224009776628
娄门    北园新村 距6号线-拙政园站1054m,31.243036703962076,121.52909272214357
黄石    鹤边鹤泰路自建房 距2号线-江夏1371m,22.929324858552793,113.09608803778634
朝晖    绿洲之馨 距1号线-西湖文化广场514m,30.285741587011643,120.176962819372
溧水区    秦淮佳苑5期 距S7号线-溧水1488m,31.677413366394315,119.05837582037333
西永    龙湖拉特芳斯(二街区商住... 距1号线-微电园461m,29.602869990449168,106.38381272701083
绿岛湖    万科金域时光(商住楼) 距2号线-湖涌592m,23.011757141225868,113.04839097963045
黄土坡    都市春天 距4号线-小屯站500m,26.604567547707493,104.83703187837071
内双楠    宝润苑 距3号线-红牌楼1043m,30.648245954212992,104.02863517351965
哈慈    香林名苑 距3号线-劳动公园694m,26.68188595250141,106.64100001985743
唐家墩    葛洲坝龙湖江宸 距3号线-范湖38m,30.72213089475882,111.29437043494525
龙池    冠城大通竹苑 距宁天线(S8)-龙池614m,32.6366021912883,117.05672629827329
龙华中心区    弓村(南区) 距4号线-龙华1279m,22.954085880136002,120.19337968747016
陈村    藏珑华府(商住楼) 距2号线-石洲1745m,34.4885221674803,107.2714219458505
丰禾路    百欣花园 距8号线-白家口站126m,29.135363440717295,110.4975556475567
合庆    绿地国际教育园区,31.243208518641033,121.72998850876732
大石坝    东原D7区(2期) 距5号线-大石坝529m,29.57628040080443,106.50026303463899
世茂大道    城市之星,31.329804335509014,121.33585193575365
海伦国际    海伦国际曼哈顿,47.47043887638964,126.97987750794978
石湾    雄盛王府广场(商住楼) 距广佛线-季华园1395m,27.29295373836466,112.9665329798913
漕河泾    华悦家园 距12号线-虹漕路372m,31.171428064480203,121.41601348556424
谈固    谈固新村 距1号线-朝晖桥481m,38.04964192075568,114.56847860515362
融江路    保利城(三期),30.759914573077115,104.09132045912528
世纪城    金阳世纪城龙锦苑,27.702144511749296,103.25454895521494
金沙湖    德信早城 距1号线-金沙湖794m,33.741317470846525,119.8103007407199
大良东区    华润置地顺德悦府 距3号线-驹荣北路880m,30.475566735818713,114.14367469050424
磁各庄    北京城建北京密码(西区),39.68841230489194,116.40310735158062
布达拉宫广场    雅和花园,41.16511618909607,121.34572422347776
龙洲湾    西部人才产业园,29.355390553150514,106.53522634270348
市桥    大北路494号小区 距3号线-市桥1593m,22.946065848765542,113.37243142613525
乔司    意法轻纺城 距9号线-客运中心站1422m,30.32766439112396,120.28657603397164
建设大道    华润万象城 距7号线-取水楼147m,30.654362366835215,104.12202921264499
钱江世纪城    日耀之城 距6号线-丰北站815m,26.60990794597814,106.63966199380076
东门    兆鑫汇金广场(商住楼) 距3号线-老街550m,35.270211071173584,118.03711618100596
布达拉宫广场    翠湖文景居,41.16511618909607,121.34572422347776
杨家坪    百康年世纪门 距18号线-杨家坪330m,29.51753373894537,106.52194777032048
会展城    美的林城时代南区美桐苑 距1号线-阳关662m,26.645585423571852,106.65945453875666
下沙江滨    世茂江滨商业中心 距1号线-下沙江滨283m,39.913313157558754,116.47795380734976
海伦国际    云溪社区 距1号线-昌宏西路881m,31.163568416032955,121.11584335194685
和兴三道街    振兴街58号小区 距1号线-学府路486m,22.718996082316313,113.79747078651837
三山新城    中海文锦国际 距2号线-林岳东1638m,39.92297763515666,116.39409034053254
建邺万达广场    宏图上水云锦二期 距2号线-兴隆大街724m,32.02005497832635,118.74967995899128
大商汇    鑫逸苑,24.987809580206612,102.71448696415018
西湖    三远花园,28.680881660484186,115.9022091296038
北滘    顺德万科广场 距3号线-潭洲会展526m,22.953490789293575,113.16929553512836
拉萨火车站    东嘎小区,29.656113294372908,91.02837938529319
冉家坝    龙湖紫都城 距5号线-大龙山458m,23.37777578062844,116.7235246469334
南肖埠    紫晶商务城 距2号线-庆菱路92m,30.263929280160237,120.1980242208673
北市区    美璟欣城 距2号线-霖雨桥878m,25.103046295905386,102.73897881471888
莲花村    长福花园 距3号线-莲花村465m,40.389754070870055,116.09232122310738
经济开发区    云大知城3期牛津花园 距4号线-羊甫头站1497m,27.44156733215448,112.16743444425771
太慈桥    中国铁建国际城F组团 距3号线-太慈桥156m,40.1364772856045,116.66899670964841
杨家坪    正升百老汇 距18号线-杨家坪20m,29.51261085344824,106.52880238034265
云东海    保利中央公园(中景一期),34.52554234915723,118.76623060919876
东山    中天渔安新城B组团,23.284474588758734,120.44229631631192
立汇美罗湾    立汇美罗湾一期,25.012873228238313,102.82274885773539
道里周边    民安小区(道里) 距1号线-西大桥1252m,33.01137317146153,112.57084953919404
中华南路    白沙南巷7号小区 距1号线-中山西路565m,25.262646612139804,110.28583402197994
大沥    大沥凤池凤东村,31.527775597294138,121.04132693362206
八卦岭    岭尚时代园 距7号线-八卦岭518m,31.468642024927572,121.355874177435
未来科技城    杭珹未来中心(北区) 距16号线-绿汀路258m,40.1294417429143,116.43507022942278
下沙江滨    宋都晨光国际 距1号线-下沙江滨465m,27.320710689327964,117.57995169273657
田林    田林十四村 距9号线-桂林路589m,31.180454886006185,121.42946201735414
布达拉宫广场    塔玛村小区,41.16511618909607,121.34572422347776
第五大街    启航嘉园 距津滨轻轨(9号线)-东海路1196m,40.121510095474434,116.56291096112537
工农大街    润园翡翠城 距3号线-工农大街1321m,45.73012605448956,126.57772580402082
凯旋/采荷    凯旋金牛坊 距2号线-庆菱路563m,39.88303978161165,116.65201586093221
布达拉宫广场    藏大西苑,38.05708558631063,114.46282296530875
浮桥    宝嘉誉峰,31.607960068642246,121.21733608326178
电子城    丁家村安置小区 距3号线-吉祥村1364m,34.20944812649563,108.92589803750684
白云公园    博泰世界岛 距2号线-云峰大道0m,23.188692433800064,113.2777499355843
三峡广场    智博天下大厦 距环线-沙坪坝881m,29.5632140125847,106.46887597063906
滨江新城    江津鲁能领秀城一街区 距市郊铁路江跳线-江津高铁站1792m,29.337867216288274,106.2616026641157
石井坡    渝富滨江首岸(商住楼) 距1号线-石井坡673m,29.601436200046237,106.45359561425829
火车北站    王旗营万福里小区 距5号线-火车北站700m,40.23723084047673,116.23778913434062
丹凤街    恒基公寓 距1号线-珠江路605m,39.86339625755639,116.23400385458268
大竹林    江山樾(三期商住楼) 距6号线-九曲河1011m,29.629213429399794,106.4833865690286
河滨    贵州省总工会职工住宅楼 距1号线-河滨公园561m,33.979271993899424,118.28227148010632
蓬莱公园    蒙自路345弄小区 距9号线-马当路675m,31.2118019442296,121.49814663630815
滇池路片区    南亚风情第壹城南亚星光苑 距5号线-福海383m,34.015759132808405,108.75259918428566
省医院    中山小区 距2号线-省医院1115m,22.5223146707905,113.39942236263188
拉萨火车站    人和鑫座,29.62936247542549,91.076709030189
王家湾    燎原悦府二区 距4号线-永安堂836m,40.27160209628052,114.85688183489582
布达拉宫广场    德吉花园,41.16511618909607,121.34572422347776
双阳街道    阳新花园城,25.003100329507046,118.62449208684714
尚锦路    恒大帝景(商住楼) 距6号线-檬梓1419m,40.012452701736706,116.41380545156004
东平新城    保利碧桂园天汇云湾,35.94190801501926,116.47759421565412
谢家湾    保利花半里玫瑰园 距18号线-石坪桥892m,29.524384170611416,106.52751861193877
李家村    测绘西路43号小区 距5号线-文艺路433m,40.00659985757172,115.68885727449195
季华六路    恒福新城 距3号线-季华六路398m,23.0205067418554,113.14466004550866
建昌道街    乐桥里 距6号线-金钟河大街391m,,
礼嘉    龙湖星图 距6号线-金山寺64m,29.678746909438768,106.50918168123076
狮城国际广场    石狮金辉城,24.746400834029217,118.63045881170355
新牌坊    碧桂园嘉誉 距环线-民安大道903m,23.21113050507408,113.28615322430515
金沙洲    恒大御景半岛,39.86084929296107,116.55951294087278
拉萨火车站    珑悦小区,29.631198022932164,91.06908600963385
科技四路西段    九鼎城 距8号线-科技二路站1960m,31.692975973201513,120.28101022286236
裕西    金瓦台 距1号线-西王277m,30.923145290922236,121.39252692868367
阅山湖    中铁阅山湖D组团 距1号线-老湾塘1773m,35.248993629135384,100.14564780322087
下沙    中洲滨海商业中心 距9号线-下沙904m,29.095019851489198,113.04431419973587
北市区    俊发龙泉俊园 距2号线-羊肠村1858m,23.093129653411445,113.30301459838299
官洲    小洲村,23.068245633526438,113.36482098185724
大坪    协信阿卡迪亚江山凌云 距5号线-红岩村1128m,29.544423001321192,106.52276450968988
悦来    保利和光尘樾(一期) 距10号线-王家庄379m,37.483852345892366,114.65848980538946
钱江世纪城    顺发和美家 距2号线-飞虹路399m,30.237506005826564,120.26058248607382
会展中心    嘉兴闽江国际,30.750974830920143,120.76355182586005
电子城    紫薇尚层 距8号线-山门口站779m,34.207682019518955,108.90624257396523
布达拉宫广场    拉鲁桥自建房,41.16511618909607,121.34572422347776
滇池路片区    滇池泊屋 距5号线-金兰路1840m,34.015759132808405,108.75259918428566
大良北区    海珀名轩 距3号线-环市北713m,24.161198771846607,120.69387058859542
省军区    首钢贵州之光光晟 距2号线-贵钢476m,39.91448107494961,116.17730101418186
花果园    花果园J区 距3号线-太慈桥757m,30.706157357809133,104.07821849360116
松浦    华美星荟,39.92368840056063,116.1980968765684
容桂    新振华华夏新城,40.091752797789866,113.2715502946146
白塔路    明通巷42号院 距2号线-东风广场371m,39.915710607466664,116.42095398714733
复兴    民安苑 距4号线-水澄桥175m,30.776798525436195,121.3656843024178
拉萨火车站    微观世界,29.632041498540378,91.07358481345689
垡头    首创繁星,39.84424121857243,116.54406370305108
哈西    南开华府 距1号线-理工大学1397m,45.71526089145673,126.5982048340541
下水径    坤祥花语岸 距5号线-下水径942m,22.621710319300398,114.11611053046842
横岗    中和盛世 距3号线-六约1586m,24.993062357356393,121.50846003961334
一号桥    卡萨国际公寓 距2号线-黄花园779m,38.12264575703968,114.53291163577485
布达拉宫广场    阳吉华苑,39.092053856541206,117.13309124967651
均安    柏涛湾,22.72331724710949,113.15185241840247
玲珑    雅戈尔雷迪森广场 距8号线-华池浜站207m,37.41743442854069,120.47983523562452
桥西周边    润德万科翡翠公园(一期) 距2号线-南位997m,37.98994404202697,114.49629796081585
良渚    万科桂语里(公寓住宅) 距2号线-杜甫村712m,30.127506214334776,120.27396301613659
东新    新天地世嘉铭座 距4号线-新天地街847m,30.328188008599014,120.18709696315227
铁机路    保利城一期 距5号线-余家头1792m,30.762530894105154,104.09466296409737
拉萨火车站    珑悦小区,29.631198022932164,91.06908600963385
九堡科技园    金地玖峯汇29-32幢 距9号线-客运中心站1969m,30.328083503536273,120.2780295553497
SM广场    罗裳华苑,39.092053856541206,117.13309124967651
太华北路    凤鸣华府(未央) 距8号线-市第三医院站217m,30.338515685933746,103.27490151502873
振头    玉村馨苑,38.01707677919049,114.45218675857895
白沙洲    云隐城青 距5号线-中医药大学677m,26.861554778090476,112.64437942410959
石井坡    渝富滨江首岸(商住楼) 距1号线-石井坡673m,29.601436200046237,106.45359561425829
城厢    得力半岛花园(公寓住宅),25.424343792481636,119.00153633130627
哈西    哈西民主家园 距3号线-城乡路1588m,45.72644908299576,126.57669814251739
汽博中心    恒大轨道时代(二期) 距3号线-童家院子202m,40.012452701736706,116.41380545156004
城关    城关,36.0631814753695,103.83147490052859
花果园    花果园U1区 距3号线-五里冲1451m,30.706157357809133,104.07821849360116
幸福    永泰城(商住楼),25.872787263195903,118.93843072857337
金融高新区    万达广场 距广佛线-金融高新区628m,39.68181097563757,118.1863173601081
双碑    阳光城翡丽公园(商住楼) 距1号线-双碑1177m,29.609560635357656,106.45379961943955
大沥    保利中央公馆,23.115357731444842,113.11692980357755
西二旗    智学苑 距昌平线-西二旗750m,40.05699989069807,116.3152519049076
大营坡    天玺苑经济适用房 距1号线-南垭路1404m,26.667281748641294,106.18427643601177
拉萨火车站    拉萨铁路小区,29.63233400953728,91.08269596691937
金银湖    武汉恒大城(二期),30.668509883819905,114.17735791322858
拉萨火车站    金盾苑,29.62936247542549,91.076709030189
紫金港    西溪宸悦 距5号线-蒋村452m,30.28108347148038,120.15605664506884
东平新城    盈天广场 距3号线-湾华648m,35.94190801501926,116.47759421565412
白塔路    昆明日用化工厂北京路住宿... 距2号线-交三桥481m,25.052276030821886,102.72681602760944
花果园    花果园C区 距3号线-花果园505m,30.706157357809133,104.07821849360116
拉萨火车站    领耀华庭,29.63525789507857,91.08626179064005
玛克威    滨江凤凰城(一期) 距3号线-靖宇公园395m,22.635329415808258,114.06119468923673
观音桥    信一金典 距3号线-观音桥532m,22.765964025485676,114.32977698747364
卡子门    春天家园 距3号线-卡子门721m,31.23908287231935,121.42470135747345
奥体中心    华润悦府(商住楼) 距2号线-兴筑路629m,39.993300002599206,116.40041207572847
群力    盛和世纪 距3号线-体育公园1498m,30.304217084576504,105.84792149065008
环市西    和平南小区 距5号线-西场564m,36.57442710890686,107.31446964419415
大学城    华晖云门 距5号线-塘朗288m,22.557308776213677,114.12982558949858
韦曲    风憬天下一期,34.172880910163826,108.92092151481211
堆龙德庆    堆龙德庆,29.651625675009356,91.00996313420868
布达拉宫广场    万翔公寓,41.16511618909607,121.34572422347776
拉萨火车站    双创广场,29.63316609542391,91.08965100749754
临安城区    悦映城(公寓住宅) 距16号线-九州街478m,31.035734423504866,121.54061295132573
布达拉宫广场    东郡嘉华府,41.16511618909607,121.34572422347776
布达拉宫广场    万翔公寓,41.16511618909607,121.34572422347776
区政府    汉峰峰公馆 距6号线-江汉路站826m,40.15606203259834,116.66728400036311
金沙湖    泰美国际大厦 距1号线-下沙西372m,33.741317470846525,119.8103007407199
南洲    越秀天荟江湾 距2号线-南洲1138m,23.070851306887274,113.30854088404799
凯旋/采荷    凯旋金牛坊 距2号线-庆菱路563m,39.88303978161165,116.65201586093221
世纪公园    丁科苑(东王) 距3号线-东王313m,40.34971033275262,116.56478841964123
蔡家    旭辉紫都 距6号线-蔡家835m,43.41622085550668,124.67572056081994
平洲    万科尚都荟(商住楼) 距3号线-镇安1519m,40.07558875358126,116.31772134675452
南安市区    丽水湾畔优家尚海,24.96549535146532,118.41053269241522
奥南    莲花新城北苑 距S3号线-油坊桥164m,41.446771528957576,120.06498265958413
石湾    永星小区 距2号线-石湾1092m,27.29295373836466,112.9665329798913
红牌楼    名人风景 距3号线-红牌楼243m,30.636695013112853,104.0341355879878
布达拉宫广场    藏游坛城,33.442427990521615,116.5667263341179
布达拉宫广场    天路分公司职工安居小区,22.538077595033915,113.99617111441012
会展中心    华鸿金色纽约 距3号线-会展中心1656m,31.154379426052877,121.11883731438105
江东花园    碧桂园北城映象谷雨苑 距2号线-霖雨桥802m,29.707527612097593,107.4242067225498
芍药居    世奥国际中心 距5号线-惠新西街北口1394m,39.98966274906182,116.44224445654767
沙太南    橡树园 距6号线-燕塘1585m,31.256332806725496,121.1662687436134
狮山    金色家园(虎丘) 距1号线-金枫路1262m,30.46576247711143,103.50395792176259
太湖新城    蓝光天悦城 距4号线-顾家荡399m,30.460113290447975,116.31547630162399
城东    泉州保利城(二期A地块),24.910876143527684,118.65277397819173
九宫庙    中冶城邦国际 距2号线-新山村1782m,29.4823118412674,106.49057471988651
一号桥    聚丰锦绣盛世 距10号线-七星岗888m,29.56575203181192,106.574528017227
前海    招商领玺家园 距5号线-妈湾565m,39.86677383284321,79.07237708705797
兴隆    鸿达新寓 距2号线-兴隆大街671m,31.368545326273864,121.26412457637623
大商汇    华都花园B区 距5号线-庄家塘立交桥1848m,24.987809580206612,102.71448696415018
上杭路    芳馨园 距4号线-泰昌路1029m,39.962908818762834,116.44191639537543
行政商务中心    曲江千林郡 距4号线-金滹沱1420m,24.688407846380294,113.61150106464875
复华小区    复华小区 距1号线-铁路局648m,45.75141992515403,126.64363609623823
经济技术开发区    天伊阁 距8号线-市第三医院站721m,23.16532797096623,113.32187497171148
白沙洲    万象公裕A区,30.491141716444442,114.27558636311696
钱江世纪城    龙湖天璞 距2号线-盈丰路854m,30.237506005826564,120.26058248607382
开发区    绿城咏桂里 距2号线-建设三路898m,35.804963883185884,114.99633702802856
科技路西口    大茂城 距3号线-丈八北路80m,30.114235152277878,119.17770259211345
铁机路    徐东公寓 距8号线-汪家墩792m,30.594273119760192,114.35420103083936
布达拉宫广场    嘎玛贡桑住宅区,29.657253391022504,91.15611878809207
堆龙德庆    堆龙德庆,29.651625675009356,91.00996313420868
布达拉宫广场    八一北路当巴社区16号院,41.16511618909607,121.34572422347776
桃花坞    西百花巷 距4号线-察院场819m,31.31752285174061,120.62783349381826
小河转盘    润德居,30.312087757842487,120.13864128597746
知识城    合景天峻 距14号线(知识城线)-旺村604m,23.328462988042503,113.53827101983842
东晓南    中海观云府 距2号线-南洲113m,23.076263067557814,113.3023489540003
拉萨火车站    青藏家苑,29.62936247542549,91.076709030189
通达街    陶瓷场小区 距1号线-和兴路177m,37.609226926895026,114.5776396145749
东海湾    海悦府,34.61929975369341,118.68179707770491
钱江世纪城    江南明城金座 距2号线-振宁路10m,30.237506005826564,120.26058248607382
西湖路    西湖花园 距2号线-宝山南路968m,22.55802035349894,114.11622901696515
下梅林    润裕山景豪苑 距9号线-下梅林658m,23.10683474882353,113.2279512916885
平湖    卓越星源,30.682240998057836,121.02257525525401
上步    佳兆业中心 距6号线-科学馆站452m,22.552339980867693,114.09844391533173
银通    锦铺花园,,
官南大道    邦盛水映长岛,24.988496043960268,102.73286997793085
拉萨火车站    双创广场,29.63316609542391,91.08965100749754
汽博中心    融创紫枫郡 距3号线-金渝641m,39.95144483203103,116.44412568794667
弹子石    天誉智慧城(商住楼) 距环线-弹子石1154m,29.592204744087578,106.60467002979051
钱江新城    钱江新城,30.24638504422317,120.20902540912579
西斜七路    崇立苑 距3号线-太白南路539m,30.6332578527326,104.00315743264566
布达拉宫广场    格桑林卡,30.014426093496454,97.1814708441319
文景南路    颐馨花园 距2号线-龙首原1325m,34.3005252704986,108.94184574505603
汽博中心    融创紫枫郡 距3号线-金渝641m,39.95144483203103,116.44412568794667
白石洲    深业世纪山谷(商住楼) 距1号线-白石洲999m,22.690280542015405,114.34400309250826
拉萨火车站    天知珑怡(B区),29.630175200098,91.06636153885354
城东    星光耀广场,36.605707645661155,101.8095690383313
"花果园    银花巷1-6号,14号小... 距1号线-贵阳火车站1092m",30.706157357809133,104.07821849360116
茶园新区    金科中央御院(三期),29.522141078461516,106.57562736350975
"新华路    石岭街118,120号小... 距2号线-油榨街1594m",31.784876360921533,119.96128820032865
奥体中心    中铁逸都国际(B区) 距2号线-金阳南路1522m,39.993300002599206,116.40041207572847
新南湖    洪山乡夏家村2-4号小区 距7号线-瑞安街673m,30.5949299727532,114.37739213503771
天星桥    蓝溪谷地 距9号线-天梨路681m,30.78713037144961,103.53870698397452
奉贤周边    泷悦和苑,30.876258201213368,121.7528083432984
亚运村    天创世缘 距15号线-安立路145m,40.00248406422588,116.42064110733821
浐灞半岛    自然界忘岳 距3号线-浐灞中心1544m,34.310677646913526,109.0578767237106
平湖    广弘中心 距10号线-禾花站420m,30.682240998057836,121.02257525525401
谢家湾    盛美居 距2号线-袁家岗1068m,29.533987673109962,106.51452588036895
北客站    韩家湾社区 距14号线-文景山公园1872m,34.38533470522363,108.9444087903371
笕桥    晟世黎明嘉苑二区 距4号线-黎明744m,39.85629435715476,116.4111684757355
龙华中心区    弓村(南区) 距4号线-龙华1279m,22.954085880136002,120.19337968747016
广钢新城    保利越秀天启 距11号线-沙涌267m,23.143303001017888,113.28695002129226
奉贤周边    诚园明礼苑,30.881340875756322,121.74792901725985
池店南中心    G15(沈海高速),24.87184256259406,118.58516750553312
南安市区    源昌丰盛家园,24.95396409516861,118.38498003287012
市政府    花香满径 距1号线支线-市级行政中心清风1763m,40.15606203259834,116.66728400036311
布达拉宫广场    永嘉公寓,28.15645033220569,120.68852407508358
沙冲路    南院玖号 距1号线-贵阳火车站785m,39.86899709831322,116.51485997058279
大坪    凌云阁大厦 距2号线-大坪355m,29.544423001321192,106.52276450968988
城关    城关,36.0631814753695,103.83147490052859
钱江世纪城    IOC潮悦 距2号线-钱江世纪城711m,26.60990794597814,106.63966199380076
九堡客运站    国芳中心2幢(商住楼) 距9号线-客运中心站511m,30.31717056007376,120.27893064560676
北二环西段    延长石油家属院 距2号线-大明宫西1153m,31.692975973201513,120.28101022286236
湖滨    向阳新村 距1号线-龙翔桥602m,23.65717781953064,113.65800903580147
世纪城    金阳世纪城龙凯苑西区,27.702144511749296,103.25454895521494
劲松    劲松七区 距10号线-劲松1388m,39.88643250675105,116.4546540081847
王家湾    中大十里新城 距4号线-王家湾734m,40.27160209628052,114.85688183489582
大沥    广佛智城天街,23.123668038961373,113.15066872123238
彭埠    花语天境府 距4号线-彭埠479m,30.29491471984799,120.23528916732103
布达拉宫广场    噶玛贡桑社区,41.16511618909607,121.34572422347776
拉萨火车站    那曲幸福家园小区,29.658905291804317,91.1758860008326
"兴关    兴关路36,38,54号... 距1号线-贵阳火车站1160m",28.456018340653763,110.40769895589824
万达    万达住宅A区,39.911723089086166,116.64964675981075
城厢    嘉丰公馆 距2号线-潘水1189m,25.424343792481636,119.00153633130627
白塔路    和谐家苑一期 距2号线-穿心鼓楼808m,40.10484484661821,116.41095081631042
罗村    尚观嘉园,36.690352190799075,118.07546942458501
花果园    花果园一期 距3号线-花果园299m,30.706157357809133,104.07821849360116
临平北    汀洲花苑(北区) 距9号线-荷禹路站698m,30.43882985679134,120.29353790167397
拉萨火车站    世邦金色两岸,29.63596783969224,91.02556858735339
科技园区    首开华润花香四季 距房山线-白盆窑503m,39.83346627962086,116.29569669226088
宝洲路    御殿花园,24.89020211162037,118.59842317112565
桃园街    西楼北里 距5号线-下瓦房685m,39.98268924008571,116.32177638765712
麒麟科技城    东流紫园望景苑 距4号线-东流966m,25.4926579342643,103.81548244598328
奥南    正荣中心天寓 距S3号线-吴侯街341m,31.414238531446692,121.36928498039346
布达拉宫广场    领秀翡翠湾,41.16511618909607,121.34572422347776
布达拉宫广场    拉萨琅赛花园7区,29.672312505499033,91.16104087347126
布达拉宫广场    领秀翡翠湾,41.16511618909607,121.34572422347776
拉萨火车站    那曲幸福家园小区,29.658905291804317,91.1758860008326
黄石    鹤边社区,29.72535615598355,114.96539272373926
洪山周边    杨春湖景苑二期 距5号线-武钢760m,30.613895478832898,114.44392845636463
布达拉宫广场    鑫亿佳公寓,41.16511618909607,121.34572422347776
布达拉宫广场    嘎玛贡桑住宅区,29.657253391022504,91.15611878809207
保税区    电建泛悦城 距3号线-新筑899m,30.51021584357982,114.42382446888186
大商汇    盘龙雅苑六号苑 距5号线-金家河1851m,24.987809580206612,102.71448696415018
拉萨火车站    宏御广场,29.63283308923823,91.0809730169518
吴井路    兆丰六千城 距2号线-环城南路943m,31.26343444175811,121.32281806178717
尖山路    长达公寓 距10号线-南珠桥站926m,39.94252055879972,116.48075822732136
南联    盛平村 距16号线-盛平648m,22.722011244819086,114.2692191588273
金融高新区    新凯广场 距广佛线-金融高新区693m,39.68181097563757,118.1863173601081
利民开发区    地恒托斯卡纳,45.889465411545714,126.57395058528454
高新路    怡和蓝钻 距6号线-西北工业大学498m,39.96106060872849,116.43925256021613
安溪宝龙广场    尚学领地(一期),25.046562859162286,118.19559288735002
杨思    东方悦居苑 距8号线-杨思1212m,31.166706220920638,121.50001376431064
布达拉宫广场    移动公司住宅区,41.16511618909607,121.34572422347776
丰庆公园    西桃园小区 距5号线-丰庆公园615m,43.6648786567875,124.95507255407415
古美罗阳    平南一村 距12号线-东兰路458m,31.151729652457817,121.40079834615844
等驾坡    陆荣花园 距5号线-黄渠头1102m,34.22711311126401,109.0139700656383
笋岗    深业泰富广场 距7号线-红岭北229m,22.568621981270226,114.11371798357393
金花南路    中菲钻石星座 距1号线-通化门368m,34.277559023891655,109.00414502878401
皇岗    金怡华庭 距4号线-福民173m,41.8668257526045,123.88807029983319
乐从    保利东瑞广场 距3号线-东平522m,22.96418785602284,113.09569556810916
龙首村    世纪金园 距2号线-龙首原348m,34.29738352610795,108.94854638551605
平凉路    华晖绿苑 距12号线-宁国路720m,22.557308776213677,114.12982558949858
西沣路    沣科花园冬荣苑 距16号线-细柳营904m,32.03618319980974,118.82913813558756
蜀都万达    万达MINISOHO,39.911723089086166,116.64964675981075
南京路    电力名苑,45.89345072773511,126.58570635017149
平洲    万科金域世家,22.931865097410967,113.65899016507915
黄兴    安图新村 距8号线-延吉中路703m,40.21652264698704,116.12267837985048
金星立交桥    金尚俊园(二期) 距2号线-白云路1180m,39.77065489164504,116.38674256078313
城东    星光耀广场,36.605707645661155,101.8095690383313
高营    南高营,38.094581907206496,114.56777029125898
拉萨火车站    海亮祥云华府,29.62134334155797,91.08744036746876
知识城    招商雍景湾 距14号线(知识城线)-何棠下863m,23.328462988042503,113.53827101983842
弹子石    锦江华府 距环线-弹子石1780m,29.58818614828762,106.59668867516754
绿岛湖    龙光玖钻广场 距2号线-绿岛湖777m,23.181238419936697,106.76622991638446
朱家角    水都南岸,31.093679798278686,121.06190199251424
花果园    花果园一期 距3号线-花果园299m,30.706157357809133,104.07821849360116
拉萨火车站    双创广场,29.63316609542391,91.08965100749754
布达拉宫广场    诺吉花园,41.16511618909607,121.34572422347776
火车北站    万宏国际(3期) 距5号线-穿金路372m,40.23723084047673,116.23778913434062
江湾    墨翠里,29.37655739819787,118.06148773238732
民治    东泉新村 距4号线-红山960m,22.622982009806012,114.04742052170404
未来科技城    联创街188号楼 距5号线-永福329m,40.14069261908023,116.4676718923131
会展城    中天会展城B区B8组团 距1号线-国际生态会议中心1186m,30.243064762160113,104.85069448808281
布达拉宫广场    纳金村古泽小区,29.663845373266273,91.19020642794574
驷马桥    蓝光富丽锦城 距3号线-昭觉寺南路684m,31.191363832356338,121.31233402801077
布达拉宫广场    羊卓苑,41.16511618909607,121.34572422347776
金洲    万科府前一号 距4号线-蕉门1783m,33.61252806468285,119.01843616926364
会展城    金融城π公寓 距1号线-国际生态会议中心1517m,23.102223271831335,113.39234191860457
越秀路    爱国北里 距5号线-西南楼367m,30.874301722000318,121.21350595919449
五里店    金陵大厦 距9号线-鲤鱼池139m,29.584197543273156,106.56393412069023
学院路    清枫华景园 距昌平线-学知园795m,40.01713704418661,116.35448818280297
石湾    招商岸芷汀兰二期(商住楼... 距2号线-石湾1577m,27.29295373836466,112.9665329798913
清湖    盛世江南 距4号线-清湖678m,28.42134962478291,117.35435232500184
南安市区    万星城市广场,24.985331105938364,118.3946564001593
燕塘    银定塘前街小区 距6号线-燕塘848m,24.471516562907627,111.14270815443528
大学城    龙湖U城3组团(商住楼) 距1号线-尖顶坡322m,23.444279274608878,116.76134519533254
南安市区    美林镇福溪村市民安置中心,24.97217772562202,118.422646791366
宣庆    宣西小区 距1号线-烟厂1981m,45.75966070167286,126.6797425879065
学府    学府经典(三期) 距1号线-学府路1168m,39.94130527226363,116.41817975024087
大毕庄镇    新村北里 距6号线-金钟街56m,30.996713067360588,103.94903784939987
金殿片区    俊发盛唐城江山郡,36.065956192215936,111.43611469017854
万胜围    琶洲新村 距4号线-万胜围478m,23.106577885822823,113.38923162560785
长桥    东湖玉景花园 距4号线-清树湾578m,39.92239821336466,116.33100009880302
钱江世纪城    澄之华庭 距2号线-盈丰路710m,30.237506005826564,120.26058248607382
瑞景街    燕宇艺术家园 距1号线-瑞景新苑531m,39.20647167353275,117.12802417778639
凯旋/采荷    滨江凯旋门 距2号线-庆菱路315m,39.88303978161165,116.65201586093221
郭杜    早安林庄 距6号线-仁村1255m,34.15737935908712,108.86226809382691
松岗    联江路46号小区,22.771321386690428,113.86380238399765
嘉兴    闵家桥锦苑 距9号线-南苑站1170m,30.404711625787808,120.3186806644233
大商汇    恒泰滇池名门,24.987809580206612,102.71448696415018
布达拉宫广场    世邦春天花园,41.16511618909607,121.34572422347776
青剑湖    置地青湖语城,34.67743988225851,118.83906575893108
罗村    招商依云华府,36.690352190799075,118.07546942458501
钱江世纪城    君品名邸 距2号线-盈丰路1319m,30.237506005826564,120.26058248607382
城东    美仙山二期,36.605707645661155,101.8095690383313
容桂    振华社区,22.76988921773085,113.27891144460831
学府大道    万科金域学府时光里 距3号线-六公里1011m,40.07558875358126,116.31772134675452
江浦街道    雅居乐滨江国际一期 距10号线-临江992m,32.0575089327949,118.63801079257095
朝安    碧桂园曼哈顿 距广佛线-朝安290m,23.034452460308962,113.13838017135159
铁心桥    马家店幸福城岁物园,40.638004855438474,116.16769660116081
平洲    万科尚都荟(商住楼) 距3号线-镇安1519m,40.07558875358126,116.31772134675452
蜀山    融信旭辉湘湖悦章,31.829154682254995,117.16081502381711
徐家汇    乐山四五村 距9号线-徐家汇542m,29.700808172250024,103.66329116721087
南联    远洋新天地(二期商住楼) 距16号线-龙园1148m,22.722011244819086,114.2692191588273
钱江世纪城    融创时代奥城 距6号线-博览中心站1417m,26.60990794597814,106.63966199380076
松岗    金叶阳光新城,22.77083311300565,113.85462781016616
拉萨火车站    顿珠金融城融晖园,29.641159087347475,91.10190236753022
哈西大街    华润置地九里芳华 距3号线-哈西大街1497m,39.944166191504046,116.37287245421741
大关    大关西四苑(公寓住宅) 距3号线-大关576m,27.754021401911025,103.89751489665241
拉萨火车站    那曲幸福家园小区,29.658905291804317,91.1758860008326
三山新城    保利诺丁山,31.23060222589733,118.24102048261318
宣庆    宣西小区 距1号线-烟厂1981m,45.75966070167286,126.6797425879065
新亚洲体育城    万科魅力之城(一期) 距4号线-广卫站1425m,24.95271919600373,102.77649061551435
通达街    清明头道街2号小区 距1号线-西大桥460m,32.07271931633866,118.76828108135584
千灯湖    万科金色领域(商住楼) 距广佛线-礌岗479m,31.389377403569366,121.22579738365695
平洲    海伦堡爱Park,31.328075351856377,121.26639666050262
布达拉宫广场    哈达滨河花园(西区),45.13145986067662,124.86526460812723
里水    合生君景湾,23.20530357623524,113.17096979693731
打浦桥    打浦路210弄小区 距9号线-打浦桥571m,31.21233168897371,121.47517885085958
新世界    新世界观澜 距2号线-枫林路771m,39.90291211421979,116.42584139793547
